{"busStops":[{"id":"0","name":"Narela Terminal","lng":77.088107,"lat":28.851958,"routeCount":34},{"id":"1","name":"Police Station Narela","lng":77.088548,"lat":28.853311,"routeCount":29},{"id":"2","name":"Safiyabad Crossing","lng":77.089322,"lat":28.854965,"routeCount":31},{"id":"3","name":"Ramdev Chowk / Pitori Johad","lng":77.092846,"lat":28.857713,"routeCount":31},{"id":"4","name":"Narela A-6 / CPJ College","lng":77.097117,"lat":28.857684,"routeCount":28},{"id":"5","name":"State Bank Of Allahbad","lng":77.097933,"lat":28.854724,"routeCount":32},{"id":"6","name":"Sec A-9 Narela","lng":77.097906,"lat":28.851769,"routeCount":30},{"id":"7","name":"Narela Pocket 13 / A-9","lng":77.097849,"lat":28.851771,"routeCount":30},{"id":"8","name":"Narela Pocket 13 / A-6","lng":77.098485,"lat":28.848993,"routeCount":32},{"id":"9","name":"Raja Harish Chandra Hospital","lng":77.10202,"lat":28.840804,"routeCount":31},{"id":"10","name":"Kasturi Ram School","lng":77.098578,"lat":28.837226,"routeCount":35},{"id":"11","name":"Munim Ji Ka Bagh","lng":77.09201,"lat":28.83657,"routeCount":33},{"id":"12","name":"New Anaj Mandi","lng":77.091456,"lat":28.838193,"routeCount":28},{"id":"13","name":"Kurani More","lng":77.090589,"lat":28.840582,"routeCount":31},{"id":"14","name":"Prem Nagar Narela","lng":77.081097,"lat":28.837755,"routeCount":15},{"id":"15","name":"Maharaja Agrassen School","lng":77.079258,"lat":28.83657,"routeCount":19},{"id":"16","name":"Bharat Mata School","lng":77.077052,"lat":28.833186,"routeCount":19},{"id":"17","name":"Kaushal Devi Netraheen Ashram","lng":77.069668,"lat":28.825219,"routeCount":21},{"id":"18","name":"Sannoth Crossing / Ghoga Crossing","lng":77.06355,"lat":28.819549,"routeCount":19},{"id":"19","name":"Delhi Jal Board Bawana","lng":77.058213,"lat":28.815434,"routeCount":36},{"id":"20","name":"Jain Bekhunth Mandir","lng":77.053975,"lat":28.811811,"routeCount":34},{"id":"21","name":"Bawana JJ Colony CRPF Camp","lng":77.048163,"lat":28.806738,"routeCount":34},{"id":"23","name":"Swaroop Nagar GT Road","lng":77.148305,"lat":28.758318,"routeCount":36},{"id":"24","name":"Libas Pur GT Road","lng":77.15075,"lat":28.75027,"routeCount":37},{"id":"25","name":"Sanjay Gandhi Transport Nagar","lng":77.154,"lat":28.7402,"routeCount":37},{"id":"26","name":"Mukarba Chowk","lng":77.155874,"lat":28.735084,"routeCount":37},{"id":"27","name":"GTK Depot","lng":77.158967,"lat":28.731117,"routeCount":53},{"id":"28","name":"Jahangirpuri GT Road (Metro Station)","lng":77.163,"lat":28.7257,"routeCount":43},{"id":"29","name":"Mahindra Park","lng":77.166162,"lat":28.721715,"routeCount":44},{"id":"30","name":"Sarai Pipal Thala","lng":77.1671,"lat":28.7206,"routeCount":48},{"id":"31","name":"Adarsh Nagar Metro Station","lng":77.169917,"lat":28.717467,"routeCount":48},{"id":"32","name":"New Sabzi Mandi","lng":77.172422,"lat":28.714415,"routeCount":46},{"id":"33","name":"Azadpur Terminal (Bara Bagh Road)","lng":77.1792795874857,"lat":28.7065332223827,"routeCount":19},{"id":"34","name":"Bara Bagh","lng":77.1831,"lat":28.7017,"routeCount":19},{"id":"35","name":"Gujranwala Town","lng":77.1849,"lat":28.6995,"routeCount":19},{"id":"36","name":"Telephone Exchange","lng":77.1869,"lat":28.6971,"routeCount":18},{"id":"37","name":"State Bank Colony","lng":77.1883,"lat":28.6954,"routeCount":18},{"id":"38","name":"Gurudwara Nanak Pyau","lng":77.192,"lat":28.691,"routeCount":18},{"id":"39","name":"Rana Pratap Bagh","lng":77.1937,"lat":28.6882666666667,"routeCount":20},{"id":"40","name":"Gur Mandi","lng":77.1963,"lat":28.6848,"routeCount":20},{"id":"41","name":"Roop Nagar / Shakti Nagar (GT Road)","lng":77.197614,"lat":28.682832,"routeCount":19},{"id":"42","name":"Clock Tower","lng":77.201567,"lat":28.677617,"routeCount":24},{"id":"43","name":"Roshnara Bagh","lng":77.2018,"lat":28.6733,"routeCount":26},{"id":"44","name":"Roshnara Road","lng":77.20455,"lat":28.669249,"routeCount":25},{"id":"45","name":"Ice Factory (Roshanara Road)","lng":77.207439,"lat":28.667538,"routeCount":25},{"id":"46","name":"St Stephen Hospital","lng":77.215047,"lat":28.667356,"routeCount":46},{"id":"47","name":"Tees Hazari Court","lng":77.218926,"lat":28.666864,"routeCount":48},{"id":"48","name":"ISBT Nityanand Marg","lng":77.225017,"lat":28.668328,"routeCount":63},{"id":"49","name":"ISBT Bridge","lng":77.228659,"lat":28.669469,"routeCount":25},{"id":"50","name":"Metro Train Depot","lng":77.241633,"lat":28.673867,"routeCount":28},{"id":"51","name":"Metro Train Depot","lng":77.243117,"lat":28.674383,"routeCount":27},{"id":"52","name":"Shyam Giri Mandir","lng":77.24775,"lat":28.6741,"routeCount":28},{"id":"53","name":"Shastri Park GT Road","lng":77.2519536225461,"lat":28.6734543883493,"routeCount":24},{"id":"54","name":"Shastri Park GT Road","lng":77.2572326120276,"lat":28.6726111562185,"routeCount":15},{"id":"55","name":"Dharampura GT Road","lng":77.2616747919392,"lat":28.6712510847409,"routeCount":21},{"id":"56","name":"Seelampur Metro Station","lng":77.265423,"lat":28.670783,"routeCount":22},{"id":"57","name":"Seelam Pur Petrol Pump","lng":77.273467,"lat":28.672117,"routeCount":9},{"id":"58","name":"Welcome Metro Station","lng":77.2763248221347,"lat":28.6725362922399,"routeCount":9},{"id":"59","name":"Shahdara (Shyam Lal College)","lng":77.283533,"lat":28.6736,"routeCount":14},{"id":"60","name":"Mansarovar Park Metro Station","lng":77.2999,"lat":28.6759,"routeCount":8},{"id":"61","name":"Telephone Exchange","lng":77.30925,"lat":28.676067,"routeCount":8},{"id":"62","name":"Dilshad Garden GT Road","lng":77.311883,"lat":28.67615,"routeCount":6},{"id":"63","name":"Shahdara Border Circle","lng":77.321617,"lat":28.676518,"routeCount":7},{"id":"64","name":"Surya Nagar (Gazipur Road)","lng":77.3215430001921,"lat":28.666390619,"routeCount":9},{"id":"65","name":"Ram Prastha Temple","lng":77.320324,"lat":28.662479,"routeCount":18},{"id":"66","name":"Ram Prastha Crossing","lng":77.3202,"lat":28.6608,"routeCount":18},{"id":"67","name":"Anand Vihar ISBT Main Road","lng":77.317903,"lat":28.647061,"routeCount":30},{"id":"69","name":"Kair Depot","lng":76.930672,"lat":28.618288,"routeCount":8},{"id":"71","name":"Mitraon School","lng":76.939964,"lat":28.607199,"routeCount":17},{"id":"72","name":"Surehra Crossing","lng":76.9324376475528,"lat":28.6042512214927,"routeCount":17},{"id":"73","name":"Rawta Crossing (Dhansa Road)","lng":76.9161323561128,"lat":28.6001675792429,"routeCount":6},{"id":"74","name":"Jaffarpur Kalan RTRM Hospital","lng":76.9153475629006,"lat":28.594840102931,"routeCount":8},{"id":"75","name":"Samaspur Khalsa","lng":76.909982,"lat":28.578394,"routeCount":4},{"id":"76","name":"Tikri Border Metro Station","lng":76.9654397279275,"lat":28.688069174713,"routeCount":9},{"id":"77","name":"Tikari Village","lng":76.9708,"lat":28.6875,"routeCount":9},{"id":"78","name":"Tikri Hospital","lng":76.9783,"lat":28.6869,"routeCount":9},{"id":"79","name":"Tikri Piyau / Azad Hind Gram","lng":76.979933,"lat":28.686817,"routeCount":9},{"id":"80","name":"Indian Oil Corporation","lng":76.986533,"lat":28.686267,"routeCount":9},{"id":"81","name":"Ghevra Crossing (Kanjhawala Road)","lng":76.994467,"lat":28.686112,"routeCount":17},{"id":"82","name":"FCI Ghevra","lng":76.993943,"lat":28.69285,"routeCount":17},{"id":"83","name":"Ghevra Village","lng":76.997956,"lat":28.696524,"routeCount":17},{"id":"84","name":"Sir Chhotu Ram Polytechnic","lng":77.001132,"lat":28.707239,"routeCount":18},{"id":"85","name":"Haryana Shakti School Kanjhawla","lng":77.0031881385706,"lat":28.7141664299404,"routeCount":17},{"id":"86","name":"Desu Sub Station","lng":77.004474,"lat":28.723483,"routeCount":17},{"id":"88","name":"Kanjhawala Village","lng":77.004502,"lat":28.733592,"routeCount":21},{"id":"89","name":"Kanjhawla Chowk","lng":77.007551,"lat":28.738005,"routeCount":11},{"id":"90","name":"Kanjhawla School","lng":77.008263,"lat":28.738824,"routeCount":15},{"id":"91","name":"Chandpur Kalan Crossing","lng":77.014409,"lat":28.751435,"routeCount":16},{"id":"92","name":"Chand Pur Village","lng":77.00975,"lat":28.75137,"routeCount":2},{"id":"93","name":"Chand Pur Village","lng":77.00775,"lat":28.75329,"routeCount":2},{"id":"94","name":"Chand Pur Majra School","lng":76.99894,"lat":28.75895,"routeCount":2},{"id":"95","name":"Majra Dabas Village","lng":76.99852,"lat":28.76899,"routeCount":2},{"id":"96","name":"Prem Piyau","lng":77.0164091280802,"lat":28.7666506423272,"routeCount":16},{"id":"97","name":"Shri Krishna Gaushala","lng":77.021947,"lat":28.779779,"routeCount":16},{"id":"98","name":"Bajit Pur Crossing","lng":77.0238674277204,"lat":28.7850261947954,"routeCount":16},{"id":"99","name":"Krishna Vihar","lng":77.025648,"lat":28.787599,"routeCount":16},{"id":"100","name":"Ishwar Colony","lng":77.029967,"lat":28.794529,"routeCount":16},{"id":"101","name":"Panchayat Ghar","lng":77.031709,"lat":28.797939,"routeCount":16},{"id":"102","name":"Primary School","lng":77.034329,"lat":28.797795,"routeCount":16},{"id":"103","name":"Bawana Village Chowk","lng":77.036058,"lat":28.800379,"routeCount":20},{"id":"104","name":"Badli Railway Staion","lng":77.13727,"lat":28.74539,"routeCount":1},{"id":"106","name":"Prem Nagar","lng":77.146286,"lat":28.743133,"routeCount":1},{"id":"107","name":"Ice Factory (Nityanand Marg)","lng":77.210806,"lat":28.6676101,"routeCount":14},{"id":"108","name":"ISBT Kashmere Gate (Lothian Road)","lng":77.230079,"lat":28.665616,"routeCount":44},{"id":"109","name":"Guru Govind Singh University (Kashmere Gate)","lng":77.230238,"lat":28.665677,"routeCount":47},{"id":"110","name":"GPO","lng":77.235311,"lat":28.661738,"routeCount":49},{"id":"111","name":"Old Delhi Railway Station (T)","lng":77.2278921212096,"lat":28.660050681036,"routeCount":45},{"id":"112","name":"Shahdara Terminal","lng":77.286865,"lat":28.67409,"routeCount":6},{"id":"113","name":"Shahdara (Shyam Lal College)","lng":77.2827487465114,"lat":28.6730434411508,"routeCount":14},{"id":"114","name":"Kanti Nagar Extension","lng":77.2809,"lat":28.6704,"routeCount":10},{"id":"115","name":"Jharkhandi","lng":77.28225,"lat":28.66785,"routeCount":10},{"id":"116","name":"East Azad Nagar","lng":77.283917,"lat":28.666167,"routeCount":10},{"id":"117","name":"Swaran Cinema","lng":77.285917,"lat":28.663502,"routeCount":10},{"id":"118","name":"Krishna Nagar A Block","lng":77.2878,"lat":28.661,"routeCount":10},{"id":"119","name":"Hans Apartment","lng":77.29,"lat":28.6582,"routeCount":10},{"id":"120","name":"Arjun Nagar","lng":77.2915,"lat":28.6564,"routeCount":10},{"id":"121","name":"Radheypuri","lng":77.2925,"lat":28.654,"routeCount":10},{"id":"122","name":"Jagatpuri  A Block","lng":77.293123,"lat":28.651637,"routeCount":13},{"id":"123","name":"Jagatpuri F-Block","lng":77.295529,"lat":28.648036,"routeCount":13},{"id":"124","name":"Gagan Vihar","lng":77.2979,"lat":28.6455,"routeCount":8},{"id":"125","name":"Karkardooma Xing","lng":77.29725,"lat":28.642867,"routeCount":15},{"id":"126","name":"New Rajdhani Enclave","lng":77.29625,"lat":28.64215,"routeCount":15},{"id":"127","name":"Preet Vihar","lng":77.292417,"lat":28.639333,"routeCount":20},{"id":"128","name":"Nirman Vihar","lng":77.287683,"lat":28.636783,"routeCount":23},{"id":"129","name":"Shakarpur Crossing","lng":77.28495,"lat":28.635367,"routeCount":26},{"id":"130","name":"Shakarpur","lng":77.281942,"lat":28.633394,"routeCount":25},{"id":"131","name":"Laxmi Nagar","lng":77.2789,"lat":28.6313,"routeCount":24},{"id":"132","name":"Rainy Well","lng":77.260933,"lat":28.628033,"routeCount":31},{"id":"133","name":"Delhi Secretariat","lng":77.25235,"lat":28.62795,"routeCount":31},{"id":"134","name":"ITO","lng":77.244433,"lat":28.627967,"routeCount":22},{"id":"135","name":"Tilak Bridge","lng":77.2387,"lat":28.6253,"routeCount":33},{"id":"136","name":"Mandi House","lng":77.234,"lat":28.625633,"routeCount":33},{"id":"137","name":"Mandi House","lng":77.230571,"lat":28.625035,"routeCount":18},{"id":"138","name":"Kasturba Gandhi Road Crossing","lng":77.226725,"lat":28.623228,"routeCount":15},{"id":"139","name":"Firoz Shah Road","lng":77.2215,"lat":28.621,"routeCount":16},{"id":"140","name":"Le Meridian Hotel / Rajendra Prasad Road","lng":77.217521,"lat":28.619225,"routeCount":7},{"id":"141","name":"Krishi Bhawan","lng":77.2137,"lat":28.616983,"routeCount":11},{"id":"142","name":"Red Cross Road","lng":77.210453,"lat":28.618035,"routeCount":20},{"id":"143","name":"Aakashwani Bhawan (Imtiyaz Ali Road)","lng":77.2098,"lat":28.62065,"routeCount":12},{"id":"144","name":"Gurudwara Rakab Ganj Road","lng":77.2073,"lat":28.6209,"routeCount":9},{"id":"145","name":"Kendriya Terminal (Church Road)","lng":77.20395,"lat":28.617383,"routeCount":17},{"id":"146","name":"Najafgarh Terminal","lng":76.978024,"lat":28.614614,"routeCount":44},{"id":"147","name":"Jharoda Crossing/Nazafgarh Terminal","lng":76.979717,"lat":28.613617,"routeCount":13},{"id":"148","name":"Jharoda Crossing","lng":76.9810620215328,"lat":28.6144807426422,"routeCount":64},{"id":"149","name":"Health Centre","lng":76.985217,"lat":28.61415,"routeCount":95},{"id":"150","name":"NajafGarh Delhi Gate","lng":76.986253,"lat":28.612627,"routeCount":32},{"id":"151","name":"Tuda Mandi","lng":76.99151,"lat":28.612622,"routeCount":31},{"id":"154","name":"Nangli Sakrawati","lng":77.0034,"lat":28.614667,"routeCount":30},{"id":"155","name":"Nangli Sakrawati Crossing","lng":77.0073543378838,"lat":28.6163352570658,"routeCount":32},{"id":"156","name":"Arjun Park","lng":77.012067,"lat":28.618,"routeCount":32},{"id":"157","name":"Chhathh Ghat Park","lng":77.015167,"lat":28.619105,"routeCount":30},{"id":"158","name":"Nangli Dairy","lng":77.01795,"lat":28.620133,"routeCount":32},{"id":"159","name":"Kakrola Bridge","lng":77.0241265592978,"lat":28.6202099508252,"routeCount":20},{"id":"160","name":"Kakrola More","lng":77.0292680534555,"lat":28.6191819992233,"routeCount":32},{"id":"161","name":"Kakrola More","lng":77.0317966190821,"lat":28.6191187419137,"routeCount":13},{"id":"162","name":"Dwarka More Metro Station (Sewak Park)","lng":77.0331014179019,"lat":28.6193619889124,"routeCount":28},{"id":"163","name":"Rama Park","lng":77.0365693721528,"lat":28.6199180152742,"routeCount":29},{"id":"164","name":"Mohan Garden","lng":77.039178,"lat":28.62029,"routeCount":26},{"id":"165","name":"Nawada Gaon","lng":77.0449947,"lat":28.6203564,"routeCount":28},{"id":"166","name":"Kiran Garden","lng":77.049338,"lat":28.620876,"routeCount":24},{"id":"167","name":"Om Vihar","lng":77.051543,"lat":28.621124,"routeCount":29},{"id":"168","name":"Prem Nagar","lng":77.056321,"lat":28.621946,"routeCount":24},{"id":"169","name":"Uttam Nagar","lng":77.06031,"lat":28.623017,"routeCount":27},{"id":"170","name":"Uttam Nagar / A1 Janak Puri","lng":77.067696,"lat":28.624813,"routeCount":32},{"id":"171","name":"Tilak Pul","lng":77.069969,"lat":28.621617,"routeCount":32},{"id":"172","name":"Jivan park","lng":77.073165,"lat":28.620041,"routeCount":32},{"id":"173","name":"C-1 Janak Puri","lng":77.076935,"lat":28.618239,"routeCount":30},{"id":"175","name":"C-2 Janak Puri","lng":77.081383,"lat":28.616152,"routeCount":17},{"id":"176","name":"C2D Janak Puri","lng":77.085484,"lat":28.614365,"routeCount":10},{"id":"177","name":"Dabri Crossing (Pankha Road)","lng":77.088391,"lat":28.61305,"routeCount":23},{"id":"178","name":"Janak Cinema","lng":77.093012,"lat":28.611026,"routeCount":23},{"id":"179","name":"Desu Colony Janak Puri","lng":77.095367,"lat":28.610049,"routeCount":22},{"id":"180","name":"SagarPur Vashisht park","lng":77.100931,"lat":28.609265,"routeCount":32},{"id":"181","name":"D Block Janak Puri","lng":77.103583,"lat":28.61096,"routeCount":34},{"id":"182","name":"Lajwanti Garden","lng":77.1062,"lat":28.614,"routeCount":33},{"id":"183","name":"Lajwanti Garden (Carriappa Marg)","lng":77.109679,"lat":28.61313,"routeCount":25},{"id":"184","name":"Janak Setu","lng":77.1139,"lat":28.6107,"routeCount":26},{"id":"185","name":"Supply Depot","lng":77.123367,"lat":28.606783,"routeCount":26},{"id":"186","name":"Kirbi Place","lng":77.128283,"lat":28.604833,"routeCount":14},{"id":"187","name":"Thimiyan Park","lng":77.133517,"lat":28.602817,"routeCount":16},{"id":"188","name":"S O Flats Carriappa Marg","lng":77.139733,"lat":28.600317,"routeCount":8},{"id":"189","name":"R R Line","lng":77.1504,"lat":28.596167,"routeCount":31},{"id":"190","name":"Golf Club","lng":77.158483,"lat":28.592967,"routeCount":31},{"id":"191","name":"Dhaula Kuan","lng":77.162865,"lat":28.592987,"routeCount":28},{"id":"192","name":"BBM Cluster Depot","lng":77.21131,"lat":28.704301,"routeCount":9},{"id":"193","name":"Sewa Kutir","lng":77.209581,"lat":28.702162,"routeCount":8},{"id":"194","name":"GTB Nagar / Haqiqat Nagar","lng":77.207636,"lat":28.698158,"routeCount":9},{"id":"195","name":"INS Hostel","lng":77.21214,"lat":28.696197,"routeCount":30},{"id":"196","name":"Vishwa Vidyalaya Metro Station","lng":77.215318,"lat":28.695022,"routeCount":30},{"id":"197","name":"Mall Road","lng":77.218624,"lat":28.69382,"routeCount":24},{"id":"198","name":"Banarsi Daas Estate Timarpur","lng":77.220359,"lat":28.69714,"routeCount":11},{"id":"199","name":"Timarpur","lng":77.22127,"lat":28.701025,"routeCount":12},{"id":"200","name":"Balak Ram Hospital","lng":77.2231666666667,"lat":28.7054,"routeCount":7},{"id":"201","name":"Police Station Timarpur","lng":77.224038,"lat":28.706947,"routeCount":13},{"id":"202","name":"Nehru Vihar Crossing","lng":77.22626,"lat":28.709086,"routeCount":13},{"id":"203","name":"Wazirabad Crossing","lng":77.228752,"lat":28.711529,"routeCount":16},{"id":"204","name":"Gurudwara Nanak Sar","lng":77.241367,"lat":28.710233,"routeCount":2},{"id":"205","name":"Pusta No 1 Sonia Vihar","lng":77.24325,"lat":28.7189,"routeCount":2},{"id":"206","name":"Pusta No 2 Sonia Vihar","lng":77.243867,"lat":28.721517,"routeCount":2},{"id":"207","name":"Pusta No 3 Sonia Vihar","lng":77.2448,"lat":28.725583,"routeCount":2},{"id":"208","name":"Gatta Factory Sonia Vihar","lng":77.24575,"lat":28.730183,"routeCount":2},{"id":"209","name":"Sonia Vihar","lng":77.246233,"lat":28.7324,"routeCount":2},{"id":"210","name":"Pusta No 5 Sonia Vihar","lng":77.246633,"lat":28.734583,"routeCount":2},{"id":"211","name":"Check Post","lng":77.24745,"lat":28.739367,"routeCount":2},{"id":"212","name":"Annpurna Mandir","lng":77.246567,"lat":28.74245,"routeCount":2},{"id":"213","name":"Sabhapur More","lng":77.24385,"lat":28.750167,"routeCount":2},{"id":"214","name":"Chauhan Patti (Terminal)","lng":77.24325,"lat":28.754767,"routeCount":2},{"id":"215","name":"NHAI Building/ Dwarka Sec-10 Metro Station","lng":77.058932,"lat":28.578409,"routeCount":14},{"id":"216","name":"Dwarka Sec-19 Modern School","lng":77.054908,"lat":28.578591,"routeCount":5},{"id":"217","name":"Amrohi More","lng":77.05115,"lat":28.574383,"routeCount":5},{"id":"218","name":"St Marry School","lng":77.048418,"lat":28.573412,"routeCount":5},{"id":"219","name":"Police Post","lng":77.035195,"lat":28.577292,"routeCount":5},{"id":"220","name":"Qutub Vihar Phase-I Kikar Stand","lng":77.02915,"lat":28.578247,"routeCount":5},{"id":"221","name":"Jhankar Crossing","lng":77.024348,"lat":28.57905,"routeCount":5},{"id":"222","name":"Goyla Dairy","lng":77.021478,"lat":28.579766,"routeCount":5},{"id":"223","name":"Nehru Bus Stand Goyla Dairy","lng":77.019327,"lat":28.580346,"routeCount":6},{"id":"224","name":"St Thomas School Goyla Vihar","lng":77.015072,"lat":28.581816,"routeCount":5},{"id":"225","name":"Taj Pur More","lng":77.011534,"lat":28.58327,"routeCount":5},{"id":"226","name":"Goyla Village","lng":77.008636,"lat":28.587476,"routeCount":3},{"id":"227","name":"Shyam Vihar","lng":77.000404,"lat":28.591403,"routeCount":3},{"id":"228","name":"Goela Dairy Crossing","lng":76.992877,"lat":28.591721,"routeCount":32},{"id":"229","name":"Deenpur Village","lng":76.991941,"lat":28.593389,"routeCount":32},{"id":"230","name":"Durga Vihar","lng":76.990298,"lat":28.596621,"routeCount":32},{"id":"231","name":"BDO Office","lng":76.988661,"lat":28.600768,"routeCount":32},{"id":"232","name":"Chhawla Stand Najafgarh","lng":76.985536,"lat":28.60799,"routeCount":33},{"id":"233","name":"Police Station NajafGarh","lng":76.9813376578563,"lat":28.6103186141233,"routeCount":91},{"id":"235","name":"Dichau Chowk","lng":76.984284,"lat":28.617676,"routeCount":25},{"id":"236","name":"Udaseen Ashram","lng":76.98804,"lat":28.621747,"routeCount":26},{"id":"237","name":"Nirmal Vihar","lng":76.992196,"lat":28.625259,"routeCount":26},{"id":"238","name":"Dichau Kalan Depot","lng":76.997733,"lat":28.629304,"routeCount":29},{"id":"239","name":"Azadpur Terminal","lng":77.177797,"lat":28.707525,"routeCount":55},{"id":"240","name":"New Sabzi Mandi","lng":77.1725,"lat":28.7139,"routeCount":24},{"id":"241","name":"Adarsh Nagar / Bharola Village","lng":77.170867,"lat":28.715917,"routeCount":46},{"id":"242","name":"Sarai Peepal Thala","lng":77.166983,"lat":28.720417,"routeCount":46},{"id":"243","name":"Mahindra Park","lng":77.166,"lat":28.7215333333333,"routeCount":44},{"id":"244","name":"Jahangir Puri GT Road","lng":77.163217,"lat":28.7251,"routeCount":36},{"id":"245","name":"Jahangir Puri Metro Station","lng":77.161583,"lat":28.7273,"routeCount":44},{"id":"246","name":"GTK Depot","lng":77.158617,"lat":28.731183,"routeCount":51},{"id":"247","name":"Mukarba Chowk","lng":77.155831,"lat":28.734723,"routeCount":17},{"id":"248","name":"Mukraba Chowk / Sanjay Gandhi Transport Nagar","lng":77.154112,"lat":28.738473,"routeCount":38},{"id":"249","name":"Libas Pur GT Road","lng":77.149383,"lat":28.752467,"routeCount":37},{"id":"250","name":"Swaroop Nagar GT Road","lng":77.14765,"lat":28.75805,"routeCount":37},{"id":"251","name":"Gurudwara Siraspur GT Road","lng":77.145315,"lat":28.76486,"routeCount":36},{"id":"252","name":"Nangli Poona More","lng":77.142899,"lat":28.771708,"routeCount":10},{"id":"253","name":"Khera Garhi","lng":77.121967,"lat":28.771944,"routeCount":10},{"id":"254","name":"Khera Kalan School","lng":77.117675,"lat":28.771903,"routeCount":10},{"id":"255","name":"Khera Kalan Gaon","lng":77.115104,"lat":28.772345,"routeCount":10},{"id":"256","name":"Rishi Dharmarth Chikitsalaya","lng":77.104022,"lat":28.773931,"routeCount":10},{"id":"257","name":"Khera Khurd Village","lng":77.102521,"lat":28.773923,"routeCount":10},{"id":"258","name":"Khera Khurd Nahar Crossing","lng":77.09241,"lat":28.773761,"routeCount":8},{"id":"259","name":"Naya Bans","lng":77.096637,"lat":28.783337,"routeCount":8},{"id":"260","name":"Mann School","lng":77.095545,"lat":28.793447,"routeCount":7},{"id":"261","name":"Holambi Khurd DRID College","lng":77.097784,"lat":28.795391,"routeCount":8},{"id":"262","name":"Holambi Khurd","lng":77.096011,"lat":28.799721,"routeCount":9},{"id":"263","name":"Holambi Kalan Terminal","lng":77.096003,"lat":28.801883,"routeCount":8},{"id":"264","name":"Holambi Kalan Crossing","lng":77.107095,"lat":28.809564,"routeCount":8},{"id":"265","name":"Shahpur Garhi","lng":77.102397,"lat":28.817688,"routeCount":8},{"id":"266","name":"Narela ITI / Narela Depot","lng":77.101135,"lat":28.820295,"routeCount":8},{"id":"267","name":"DSIDC Narela","lng":77.100678,"lat":28.821204,"routeCount":8},{"id":"268","name":"Bhor Garh","lng":77.094509,"lat":28.829162,"routeCount":8},{"id":"269","name":"Babu Jag Jeevan Ram Colony","lng":77.093266,"lat":28.833012,"routeCount":8},{"id":"270","name":"Old Anaj Mandi","lng":77.088967,"lat":28.845328,"routeCount":25},{"id":"271","name":"Narela Primary School","lng":77.088366,"lat":28.847045,"routeCount":26},{"id":"272","name":"Keshav Nagar Mukti Ashram","lng":77.179936,"lat":28.779253,"routeCount":3},{"id":"273","name":"Ibrahim Pur More","lng":77.179669,"lat":28.775793,"routeCount":3},{"id":"274","name":"Natthupura Crossing Terminal","lng":77.180783,"lat":28.768883,"routeCount":1},{"id":"275","name":"Amrit Vihar Colony","lng":77.1838,"lat":28.7645,"routeCount":3},{"id":"276","name":"Koushik Enclave","lng":77.188717,"lat":28.761167,"routeCount":3},{"id":"277","name":"Laxmi Vihar","lng":77.1910833333333,"lat":28.76015,"routeCount":2},{"id":"278","name":"Ekta Garden Harijan Basti","lng":77.1983,"lat":28.7555,"routeCount":3},{"id":"279","name":"Burari Village","lng":77.199,"lat":28.7541,"routeCount":3},{"id":"280","name":"Sarvodhya Vidhyalay Burari","lng":77.1985666666667,"lat":28.7492333333333,"routeCount":3},{"id":"281","name":"Balti Factory","lng":77.1983,"lat":28.7467,"routeCount":2},{"id":"282","name":"Sant Nagar Main Market","lng":77.198,"lat":28.7418,"routeCount":3},{"id":"283","name":"Sant Nagar A1","lng":77.1973,"lat":28.7377,"routeCount":2},{"id":"284","name":"Jharoda Dairy Crossing","lng":77.197717,"lat":28.734483,"routeCount":3},{"id":"285","name":"Burari Transport Authority","lng":77.198467,"lat":28.730567,"routeCount":3},{"id":"286","name":"Nirankari Sarover","lng":77.198067,"lat":28.72773,"routeCount":4},{"id":"287","name":"CV Raman ITI","lng":77.20015,"lat":28.72095,"routeCount":4},{"id":"288","name":"Nirankari Colony","lng":77.2041,"lat":28.714883,"routeCount":4},{"id":"289","name":"Radio Colony","lng":77.2045,"lat":28.7112333333333,"routeCount":4},{"id":"290","name":"Dhaka Village","lng":77.204733,"lat":28.706789,"routeCount":2},{"id":"291","name":"Balmiki Gandhi Ashram","lng":77.205033,"lat":28.70458,"routeCount":3},{"id":"292","name":"TB Hospital","lng":77.205017,"lat":28.700567,"routeCount":3},{"id":"293","name":"GTB Nagar","lng":77.206554,"lat":28.698294,"routeCount":24},{"id":"294","name":"Khyber Pass","lng":77.221419,"lat":28.690202,"routeCount":27},{"id":"295","name":"Vidhan Sabha Metro Station","lng":77.221672,"lat":28.687634,"routeCount":27},{"id":"296","name":"Old Secretariat (Postal Account Office)","lng":77.222282,"lat":28.683891,"routeCount":27},{"id":"297","name":"IP College","lng":77.223955,"lat":28.679703,"routeCount":23},{"id":"298","name":"Exchange Store / Civil Lines Metro Station","lng":77.225033,"lat":28.676602,"routeCount":6},{"id":"299","name":"Ludlow Castle","lng":77.226008,"lat":28.672405,"routeCount":22},{"id":"300","name":"ISBT Nityanand Marg","lng":77.226269,"lat":28.668479,"routeCount":51},{"id":"301","name":"Natthupura Terminal","lng":77.18095,"lat":28.768915,"routeCount":2},{"id":"303","name":"Sant Nagar A-1","lng":77.1976852838739,"lat":28.7387275691695,"routeCount":1},{"id":"304","name":"GTB Nagar / Haqiqat Nagar","lng":77.2076,"lat":28.698283,"routeCount":4},{"id":"305","name":"Sewa Kutir","lng":77.2098166666667,"lat":28.70265,"routeCount":8},{"id":"306","name":"BBM Cluster Depot","lng":77.211183,"lat":28.704317,"routeCount":9},{"id":"312","name":"Jasola Vihar","lng":77.2968,"lat":28.5404,"routeCount":2},{"id":"313","name":"Sarita Vihar K Block","lng":77.291867,"lat":28.538333,"routeCount":2},{"id":"314","name":"Apollo Hospital","lng":77.282682,"lat":28.539501,"routeCount":6},{"id":"315","name":"Harkesh Nagar","lng":77.27934,"lat":28.543764,"routeCount":6},{"id":"316","name":"Okhla Tank","lng":77.276605,"lat":28.548007,"routeCount":6},{"id":"317","name":"CRRI","lng":77.273998,"lat":28.551088,"routeCount":6},{"id":"318","name":"Sukhdev Vihar Depot","lng":77.271291,"lat":28.554827,"routeCount":6},{"id":"319","name":"Kalkaji Xing","lng":77.26895,"lat":28.55795,"routeCount":6},{"id":"320","name":"Ishwar Nagar","lng":77.266287,"lat":28.561592,"routeCount":7},{"id":"322","name":"Ashram Chowk","lng":77.259788,"lat":28.57045,"routeCount":7},{"id":"323","name":"Ashram (Hari Nagar)","lng":77.256865,"lat":28.574277,"routeCount":7},{"id":"324","name":"Bhogal","lng":77.251209,"lat":28.582917,"routeCount":11},{"id":"325","name":"Bhogal (Jungpura)","lng":77.249659,"lat":28.584692,"routeCount":12},{"id":"326","name":"Nizamuddin Extension","lng":77.246339,"lat":28.589269,"routeCount":12},{"id":"327","name":"Police Station Nizamuddin (Dargah)","lng":77.244916,"lat":28.591349,"routeCount":12},{"id":"328","name":"Ishpat Bhawan","lng":77.23675,"lat":28.5924,"routeCount":3},{"id":"329","name":"JLN Stadium (Sunehripulla Depot)","lng":77.232383,"lat":28.591833,"routeCount":1},{"id":"330","name":"Lodhi Colony 18-Block","lng":77.22425,"lat":28.586733,"routeCount":9},{"id":"331","name":"Lodhi Colony","lng":77.224533,"lat":28.584817,"routeCount":4},{"id":"332","name":"Kushak Nallah Depot","lng":77.225132,"lat":28.580036,"routeCount":2},{"id":"334","name":"Madanpur Khadar Crossing","lng":77.287907,"lat":28.529703,"routeCount":6},{"id":"335","name":"Sarita Vihar","lng":77.286936,"lat":28.532092,"routeCount":6},{"id":"336","name":"Nehru Nagar","lng":77.253917,"lat":28.568283,"routeCount":19},{"id":"337","name":"Lajpat Nagar Ring Road","lng":77.248511,"lat":28.565391,"routeCount":14},{"id":"338","name":"Gupta Market","lng":77.241433,"lat":28.564833,"routeCount":16},{"id":"339","name":"Gupta Market","lng":77.239969,"lat":28.564823,"routeCount":16},{"id":"340","name":"MCKR Hospital","lng":77.235154,"lat":28.569135,"routeCount":4},{"id":"341","name":"Defence Colony","lng":77.237367,"lat":28.573,"routeCount":4},{"id":"342","name":"Pant Nagar","lng":77.240533,"lat":28.583917,"routeCount":4},{"id":"343","name":"CGO Complex","lng":77.2408,"lat":28.587033,"routeCount":4},{"id":"344","name":"Amir Khusro Park / Oberoi Hotel","lng":77.240433,"lat":28.596267,"routeCount":3},{"id":"345","name":"Delhi Public School","lng":77.2406,"lat":28.598783,"routeCount":2},{"id":"347","name":"Zoo","lng":77.23995,"lat":28.6084,"routeCount":11},{"id":"348","name":"National Stadium","lng":77.239967,"lat":28.611683,"routeCount":10},{"id":"349","name":"ITPO Gate No. 3","lng":77.24015,"lat":28.6155,"routeCount":9},{"id":"350","name":"Pragati Maidan Gate No. 5","lng":77.240183,"lat":28.618483,"routeCount":8},{"id":"351","name":"Supreme Court","lng":77.240388,"lat":28.622877,"routeCount":8},{"id":"352","name":"Pragati Maidan Metro Station","lng":77.240567,"lat":28.623433,"routeCount":7},{"id":"353","name":"ITO (Agarwal Chowk)","lng":77.241192,"lat":28.629065,"routeCount":24},{"id":"354","name":"Express Building","lng":77.240804,"lat":28.633864,"routeCount":24},{"id":"355","name":"Delhi Gate / Ambedkar Stadium","lng":77.241013,"lat":28.638817,"routeCount":24},{"id":"356","name":"Darya Ganj Golcha Cinema","lng":77.240226,"lat":28.64635,"routeCount":22},{"id":"357","name":"Subhash Park","lng":77.239311,"lat":28.649272,"routeCount":28},{"id":"358","name":"Jama Masjid","lng":77.237958,"lat":28.651255,"routeCount":27},{"id":"359","name":"Red Fort","lng":77.236401,"lat":28.653939,"routeCount":21},{"id":"363","name":"Jhul-Jhuli Check Post / Ghumanhera Crossing","lng":76.909333,"lat":28.535283,"routeCount":2},{"id":"364","name":"Malik Pur Village Crossing","lng":76.907483,"lat":28.552333,"routeCount":2},{"id":"365","name":"Ujwa Gaon","lng":76.9065230295013,"lat":28.5683384634491,"routeCount":7},{"id":"366","name":"Ujwa School","lng":76.9082469,"lat":28.5735106,"routeCount":3},{"id":"368","name":"Samaspur Khalsa","lng":76.9100964494088,"lat":28.5790789307376,"routeCount":9},{"id":"370","name":"Rawta Crossing (Dhansa Road)","lng":76.9161106637266,"lat":28.600403776461,"routeCount":14},{"id":"371","name":"Surehra Crossing","lng":76.932397,"lat":28.60448,"routeCount":16},{"id":"372","name":"Mitraon School","lng":76.939754,"lat":28.607252,"routeCount":16},{"id":"374","name":"Mitraon Crossing","lng":76.951668,"lat":28.608343,"routeCount":19},{"id":"375","name":"Indra Service Station","lng":76.959974,"lat":28.608858,"routeCount":22},{"id":"376","name":"Nanak Piyau","lng":76.967851,"lat":28.609487,"routeCount":22},{"id":"377","name":"Prem Nursary","lng":76.971259,"lat":28.610354,"routeCount":22},{"id":"378","name":"Khera More / Ghuman Hera Crossing","lng":76.9744597383946,"lat":28.6111300229137,"routeCount":33},{"id":"379","name":"Jharoda Crossing Jharoda Road","lng":76.9793626157992,"lat":28.6137657049756,"routeCount":49},{"id":"380","name":"NajafGarh Terminal","lng":76.9772491148408,"lat":28.6148311619155,"routeCount":48},{"id":"381","name":"Shalimar Bagh (Ring Road)","lng":77.169078,"lat":28.703538,"routeCount":6},{"id":"382","name":"Ashok Vihar Crossing","lng":77.165532,"lat":28.701819,"routeCount":18},{"id":"383","name":"Richi Rich","lng":77.161821,"lat":28.70097,"routeCount":18},{"id":"384","name":"Prem Bari Pul","lng":77.158465,"lat":28.700065,"routeCount":13},{"id":"385","name":"Punjab Kesari (Subhash Palace Depot)","lng":77.155671,"lat":28.695994,"routeCount":20},{"id":"386","name":"Wazirpur DTC Depot / Netaji Subhash Palace","lng":77.150918,"lat":28.693861,"routeCount":13},{"id":"387","name":"Pitampura ND Block","lng":77.146025,"lat":28.69553,"routeCount":17},{"id":"388","name":"Kohat Enclave Metro Station","lng":77.142174,"lat":28.697168,"routeCount":17},{"id":"389","name":"Vaishali  Enclave / Kapil Vihar","lng":77.137619,"lat":28.699303,"routeCount":17},{"id":"390","name":"JD Block Pitam Pura","lng":77.134768,"lat":28.701454,"routeCount":19},{"id":"391","name":"Pitampura Metro Station Madhuban Chowk","lng":77.133476,"lat":28.702377,"routeCount":14},{"id":"392","name":"Madhuban Chowk Outer Ring Road","lng":77.130242,"lat":28.702886,"routeCount":21},{"id":"393","name":"Saraswati  Vihar C Block","lng":77.125333,"lat":28.700082,"routeCount":25},{"id":"394","name":"Deepali Chowk","lng":77.11962,"lat":28.69796,"routeCount":25},{"id":"395","name":"Kali Mata Mandir","lng":77.115505,"lat":28.697185,"routeCount":21},{"id":"396","name":"Puspanjali Enclave","lng":77.111793,"lat":28.696165,"routeCount":22},{"id":"397","name":"Rohini Depot  3","lng":77.109414,"lat":28.695388,"routeCount":23},{"id":"398","name":"Mangolpur School","lng":77.106694,"lat":28.694461,"routeCount":10},{"id":"399","name":"Mangolpur Kalan Village","lng":77.101135,"lat":28.695549,"routeCount":20},{"id":"400","name":"Avantika Crossing","lng":77.0964,"lat":28.69875,"routeCount":9},{"id":"401","name":"Mangol Pur Khurd","lng":77.094325,"lat":28.700005,"routeCount":19},{"id":"402","name":"Mangolpuri Y Block","lng":77.089647,"lat":28.702634,"routeCount":19},{"id":"403","name":"Krishna Vihar","lng":77.086895,"lat":28.704528,"routeCount":14},{"id":"404","name":"Krishna Vihar","lng":77.081042,"lat":28.709736,"routeCount":20},{"id":"405","name":"Brahm Shakti Hospital","lng":77.0805,"lat":28.7125001,"routeCount":19},{"id":"406","name":"Pooth Kalan","lng":77.076933,"lat":28.714257,"routeCount":21},{"id":"407","name":"Rohini Sec-21","lng":77.0696,"lat":28.7187,"routeCount":21},{"id":"408","name":"Begumpur","lng":77.06495,"lat":28.7217,"routeCount":3},{"id":"410","name":"Karala Pathsala Jain Mandir","lng":77.053345,"lat":28.726356,"routeCount":3},{"id":"411","name":"Sukhbeer Nagar","lng":77.04895,"lat":28.727533,"routeCount":3},{"id":"412","name":"Rama Vihar","lng":77.045817,"lat":28.728583,"routeCount":3},{"id":"413","name":"Karala School","lng":77.039664,"lat":28.730681,"routeCount":17},{"id":"414","name":"Karala Village","lng":77.037,"lat":28.7315,"routeCount":23},{"id":"415","name":"Karala Crossing","lng":77.031627,"lat":28.731601,"routeCount":16},{"id":"416","name":"Desu Office","lng":77.0284,"lat":28.7325,"routeCount":17},{"id":"417","name":"Shiv Vihar Bheem Chowk","lng":77.025,"lat":28.7333,"routeCount":18},{"id":"418","name":"Radha Swami Satsang","lng":77.0208,"lat":28.73384,"routeCount":17},{"id":"419","name":"Shivam Plywood","lng":77.0125833333333,"lat":28.7352,"routeCount":20},{"id":"420","name":"Kanjhawla Chowk","lng":77.00692,"lat":28.737911,"routeCount":9},{"id":"421","name":"Nirmal Hospital","lng":77.004399,"lat":28.738428,"routeCount":12},{"id":"422","name":"Ladpur Village","lng":76.997517,"lat":28.73949,"routeCount":11},{"id":"423","name":"Rajendra Lakra Public School","lng":76.994313,"lat":28.740338,"routeCount":12},{"id":"424","name":"Sant Vivekanand School","lng":76.9865,"lat":28.74225,"routeCount":12},{"id":"425","name":"Vriddha Ashram","lng":76.980917,"lat":28.744467,"routeCount":12},{"id":"426","name":"Jonti Crossing","lng":76.978217,"lat":28.74615,"routeCount":7},{"id":"427","name":"Jonti Village","lng":76.972067834944,"lat":28.7531452409393,"routeCount":7},{"id":"428","name":"Tatesar Village","lng":76.968475,"lat":28.755872,"routeCount":7},{"id":"429","name":"Balaji Enclave","lng":76.96456,"lat":28.767498,"routeCount":7},{"id":"430","name":"Punjab Khor Village","lng":76.962094,"lat":28.773006,"routeCount":7},{"id":"431","name":"Punjab Khor Village","lng":76.9614,"lat":28.7779,"routeCount":7},{"id":"432","name":"Divya Dham Ashram","lng":76.962441,"lat":28.788119,"routeCount":7},{"id":"433","name":"Jatt Khor Crossing","lng":76.962473,"lat":28.79069,"routeCount":7},{"id":"434","name":"Qutub Garh Enclave","lng":76.960533,"lat":28.7977,"routeCount":7},{"id":"435","name":"Qutub Garh Village (T)","lng":76.962031,"lat":28.801274,"routeCount":11},{"id":"436","name":"Katewara Crossing","lng":76.9658501,"lat":28.8061001,"routeCount":7},{"id":"437","name":"Katewara Colony","lng":76.969867,"lat":28.805956,"routeCount":5},{"id":"439","name":"Rajghat Depot","lng":77.252592,"lat":28.643931,"routeCount":8},{"id":"440","name":"Rajghat Gandhi Darshan","lng":77.2502,"lat":28.6389,"routeCount":15},{"id":"441","name":"Gandhi Darshan","lng":77.247267,"lat":28.636983,"routeCount":21},{"id":"442","name":"Indira Gandhi Stadium","lng":77.2469,"lat":28.6336,"routeCount":2},{"id":"443","name":"IP Power House (ITO Ring Road)","lng":77.247687,"lat":28.624078,"routeCount":7},{"id":"444","name":"Indraprastha Depot","lng":77.249,"lat":28.6195,"routeCount":7},{"id":"445","name":"Pragati Power Station","lng":77.2501,"lat":28.616,"routeCount":7},{"id":"446","name":"Railway Road Bridge","lng":77.2517899,"lat":28.610753,"routeCount":7},{"id":"447","name":"Nizamuddin Road Bridge","lng":77.254218,"lat":28.603408,"routeCount":7},{"id":"448","name":"ISBT Sarai Kale Khan","lng":77.2581704,"lat":28.5908681,"routeCount":3},{"id":"449","name":"Kushak Nallah Depot","lng":77.224903,"lat":28.580073,"routeCount":3},{"id":"450","name":"Lodhi Colony","lng":77.2247,"lat":28.5847,"routeCount":5},{"id":"451","name":"Central School Lodhi Road","lng":77.228233,"lat":28.584967,"routeCount":7},{"id":"452","name":"J L Nehru Stadium","lng":77.2301,"lat":28.5841,"routeCount":7},{"id":"453","name":"Sewa Nagar Flyover","lng":77.229533,"lat":28.57875,"routeCount":7},{"id":"454","name":"Defence Colony (Homyopathic College)","lng":77.227669,"lat":28.571983,"routeCount":7},{"id":"455","name":"PT College Kotla","lng":77.22655,"lat":28.569817,"routeCount":6},{"id":"456","name":"Andrews Ganj","lng":77.230567,"lat":28.565987,"routeCount":21},{"id":"457","name":"Gupta Market","lng":77.239733,"lat":28.565133,"routeCount":9},{"id":"458","name":"Lajpat Nagar (Ring Road)","lng":77.242598,"lat":28.565202,"routeCount":9},{"id":"459","name":"Lajpat Nagar Ring Road","lng":77.249098,"lat":28.565781,"routeCount":12},{"id":"460","name":"Lajpat Nagar Crossing","lng":77.250367,"lat":28.564183,"routeCount":7},{"id":"461","name":"Garhi Village","lng":77.251417,"lat":28.5624,"routeCount":7},{"id":"462","name":"B-Block East of Kailash","lng":77.255617,"lat":28.562167,"routeCount":7},{"id":"463","name":"C-Block East of Kailash","lng":77.2582,"lat":28.56215,"routeCount":7},{"id":"464","name":"SNPD","lng":77.2601598,"lat":28.5612422,"routeCount":7},{"id":"465","name":"Laghu Udyog Sansthan (ModiMill)","lng":77.2648,"lat":28.5565,"routeCount":7},{"id":"466","name":"NSIC","lng":77.265133,"lat":28.553683,"routeCount":10},{"id":"467","name":"Kalkaji Mandir","lng":77.2645,"lat":28.55205,"routeCount":10},{"id":"468","name":"Kalkaji Mandir (MaaAnandmayeeMarg)","lng":77.263,"lat":28.5479,"routeCount":8},{"id":"469","name":"Govind Puri Metro Station","lng":77.2641,"lat":28.545217,"routeCount":9},{"id":"470","name":"Kalkaji Depot","lng":77.2674,"lat":28.5375,"routeCount":7},{"id":"471","name":"C-Lal Chowk","lng":77.268667,"lat":28.534033,"routeCount":7},{"id":"472","name":"CRPF Camp / Crown Plaza","lng":77.272383,"lat":28.527867,"routeCount":8},{"id":"473","name":"Bank","lng":77.2736,"lat":28.5261,"routeCount":8},{"id":"474","name":"Okhla Ph-I","lng":77.2777,"lat":28.5203,"routeCount":8},{"id":"475","name":"ESI Hospital","lng":77.281333,"lat":28.51425,"routeCount":2},{"id":"476","name":"Tehkhand Depot DTC","lng":77.281167,"lat":28.510917,"routeCount":9},{"id":"477","name":"Prem Nagar","lng":77.2793,"lat":28.5044,"routeCount":10},{"id":"478","name":"Lal Kuan","lng":77.284517,"lat":28.5026,"routeCount":10},{"id":"479","name":"Surajkund Crossing","lng":77.291,"lat":28.5017,"routeCount":10},{"id":"480","name":"Prehlad Pur","lng":77.294633,"lat":28.5,"routeCount":10},{"id":"481","name":"Badarpur M B Road","lng":77.299267,"lat":28.4995,"routeCount":9},{"id":"482","name":"Jaitpur Crossing","lng":77.302191,"lat":28.498104,"routeCount":14},{"id":"484","name":"Dichau Kalan Depot","lng":76.997542,"lat":28.628968,"routeCount":35},{"id":"485","name":"Nirmal Vihar","lng":76.992481,"lat":28.625293,"routeCount":34},{"id":"486","name":"Udaseen Ashram","lng":76.988064,"lat":28.621564,"routeCount":34},{"id":"487","name":"Dichau Chowk","lng":76.98382,"lat":28.616516,"routeCount":31},{"id":"488","name":"NajafGarh Delhi Gate","lng":76.985721,"lat":28.611746,"routeCount":96},{"id":"489","name":"Chawla Stand Najafgarh","lng":76.986005,"lat":28.607056,"routeCount":39},{"id":"490","name":"BDO Office","lng":76.988758,"lat":28.600879,"routeCount":36},{"id":"491","name":"Durga Vihar","lng":76.99046,"lat":28.59664,"routeCount":36},{"id":"492","name":"Deenpur Village","lng":76.991774,"lat":28.594055,"routeCount":26},{"id":"493","name":"Goela Dairy Crossing","lng":76.992969,"lat":28.591726,"routeCount":36},{"id":"494","name":"Shyam Vihar","lng":77.000564,"lat":28.591481,"routeCount":1},{"id":"495","name":"Goyla Village","lng":77.008562,"lat":28.587801,"routeCount":1},{"id":"496","name":"Taj Pur More","lng":77.011776,"lat":28.583311,"routeCount":3},{"id":"497","name":"St Thomas School Goyla Vihar","lng":77.015056,"lat":28.581902,"routeCount":3},{"id":"498","name":"Nehru Bus Stand Goyla Dairy","lng":77.019268,"lat":28.580514,"routeCount":6},{"id":"499","name":"Goyla Dairy (Qutub Vihar)","lng":77.021953036937,"lat":28.5798547497433,"routeCount":5},{"id":"500","name":"Jhankar Crossing","lng":77.024293,"lat":28.579252,"routeCount":5},{"id":"501","name":"Qutub Vihar Phase-I Kikar Stand","lng":77.029767,"lat":28.5784,"routeCount":5},{"id":"502","name":"Police Post","lng":77.035333,"lat":28.577431,"routeCount":5},{"id":"503","name":"Amrohi More","lng":77.0513,"lat":28.574817,"routeCount":5},{"id":"504","name":"Dwarka Sec-19 Modern School","lng":77.0542,"lat":28.578167,"routeCount":5},{"id":"505","name":"NHAI Building/ Dwarka Sec-10 Metro Station","lng":77.059118,"lat":28.579068,"routeCount":14},{"id":"506","name":"President Cabinet Apartments","lng":77.062279,"lat":28.582753,"routeCount":12},{"id":"507","name":"Princess Park/ Airforce Noval Office Enclave","lng":77.066452,"lat":28.587688,"routeCount":19},{"id":"508","name":"Dwarka Sec-6/7","lng":77.069535,"lat":28.59126,"routeCount":19},{"id":"509","name":"Dwarka Sec-6 Telephone Exchange","lng":77.070994,"lat":28.593228,"routeCount":19},{"id":"510","name":"Maharaja Agrasen Hospital Dwarka","lng":77.079538,"lat":28.593101,"routeCount":13},{"id":"511","name":"Health Centre","lng":77.081258,"lat":28.592015,"routeCount":20},{"id":"512","name":"Mangla Puri Terminal","lng":77.086907,"lat":28.590099,"routeCount":7},{"id":"513","name":"Shivaji Stadium Terminal","lng":77.215806,"lat":28.632763,"routeCount":8},{"id":"514","name":"Shaheed Bhagat Singh Marg","lng":77.212365,"lat":28.633293,"routeCount":21},{"id":"515","name":"Shaheed Bhagat Singh Marg","lng":77.209301,"lat":28.633562,"routeCount":23},{"id":"516","name":"Gole Market","lng":77.2037,"lat":28.6347,"routeCount":14},{"id":"517","name":"PS Mandir Marg","lng":77.20345,"lat":28.638783,"routeCount":20},{"id":"518","name":"Balmiki Mandir","lng":77.2043,"lat":28.639867,"routeCount":20},{"id":"519","name":"Panchkuian Road Banwai Lal Hospital","lng":77.2042,"lat":28.6417,"routeCount":23},{"id":"520","name":"Meghdoot Bhawan","lng":77.201033,"lat":28.643667,"routeCount":22},{"id":"521","name":"Pusa Road Petrol Pump Sadhu Vaswani Marg","lng":77.192833,"lat":28.644583,"routeCount":22},{"id":"522","name":"Karol Bagh Metro Station","lng":77.188747,"lat":28.643911,"routeCount":21},{"id":"524","name":"East Patel Nagar","lng":77.1734091778132,"lat":28.6424110602643,"routeCount":27},{"id":"525","name":"South Patel Nagar (Metro Station)","lng":77.1684196058229,"lat":28.6453945693725,"routeCount":27},{"id":"526","name":"West Patel Nagar","lng":77.164974,"lat":28.647504,"routeCount":27},{"id":"527","name":"Shadipur DTC Colony Metro Station","lng":77.1585098882541,"lat":28.6513447000214,"routeCount":26},{"id":"528","name":"Shadipur Depot","lng":77.1555,"lat":28.653117,"routeCount":16},{"id":"529","name":"Moti Nagar Industrial Area","lng":77.1485,"lat":28.657317,"routeCount":19},{"id":"530","name":"Karampura Terminal","lng":77.142383,"lat":28.661,"routeCount":15},{"id":"531","name":"New Moti Nagar B Block","lng":77.1406,"lat":28.6635,"routeCount":14},{"id":"532","name":"Punjabi Bagh Terminal","lng":77.137519,"lat":28.669318,"routeCount":23},{"id":"533","name":"Shakkur Pur Crossing / Britannia","lng":77.147619,"lat":28.684228,"routeCount":6},{"id":"534","name":"Telephone Exchange","lng":77.150998,"lat":28.686452,"routeCount":8},{"id":"535","name":"Netaji Subhas Place/Wazirpur Depot","lng":77.153496,"lat":28.691698,"routeCount":8},{"id":"536","name":"Guru Govind Singh College","lng":77.151475,"lat":28.6979,"routeCount":4},{"id":"537","name":"TV Tower (Power House)","lng":77.151202,"lat":28.699707,"routeCount":4},{"id":"538","name":"DAV School","lng":77.14428,"lat":28.699912,"routeCount":3},{"id":"539","name":"Pitam Pura KD Block","lng":77.1411,"lat":28.7002,"routeCount":3},{"id":"540","name":"Pittampura AP-Block","lng":77.139304,"lat":28.703277,"routeCount":4},{"id":"541","name":"Pitampura CD-Block","lng":77.138462,"lat":28.705955,"routeCount":4},{"id":"542","name":"Pitampura Power House","lng":77.134558,"lat":28.707765,"routeCount":9},{"id":"543","name":"Madhuban Chowk (Outer Ring Road)","lng":77.132221,"lat":28.704931,"routeCount":8},{"id":"544","name":"Madhuvan Chowk","lng":77.130151,"lat":28.704675,"routeCount":12},{"id":"545","name":"Sai Baba Chowk Rohini Sec 7","lng":77.123974,"lat":28.707658,"routeCount":8},{"id":"546","name":"Sai Baba Chowk Rohini","lng":77.123648,"lat":28.70906,"routeCount":6},{"id":"547","name":"Rohini Sec 7 and 8","lng":77.120316,"lat":28.711578,"routeCount":12},{"id":"548","name":"Rohini West Metro Station","lng":77.115,"lat":28.715,"routeCount":8},{"id":"549","name":"Rohini Depot 1 Sec 6 (Ambedkar Hospital)","lng":77.113983,"lat":28.7158,"routeCount":8},{"id":"550","name":"Rajeev Gandhi Cancer Hospital","lng":77.111833,"lat":28.71725,"routeCount":8},{"id":"551","name":"Rithala Metro Station","lng":77.108529,"lat":28.71964,"routeCount":8},{"id":"552","name":"Pal Colony","lng":77.103745,"lat":28.723411,"routeCount":8},{"id":"553","name":"Rithala Village","lng":77.100279,"lat":28.725811,"routeCount":8},{"id":"554","name":"Sec-24 Rohini Main Road","lng":77.098373,"lat":28.727139,"routeCount":8},{"id":"555","name":"Dera Satguru Sewaram Sahai Sec 24/25 Crossing","lng":77.094556,"lat":28.72976,"routeCount":8},{"id":"557","name":"Hanuman Mandir Rohini Sec 24","lng":77.08773,"lat":28.722883,"routeCount":1},{"id":"558","name":"Rohini Sec 23 (Green Hill Aptt.)","lng":77.0846028893605,"lat":28.7192220505417,"routeCount":6},{"id":"559","name":"Ghuman Hera Village","lng":76.922323,"lat":28.532153,"routeCount":4},{"id":"560","name":"Ghuman Hera More / Shikarpur Crossing","lng":76.922167,"lat":28.536905,"routeCount":18},{"id":"561","name":"Dewta Wala mandir","lng":76.930686,"lat":28.548976,"routeCount":16},{"id":"562","name":"Hasanpur Village","lng":76.9368548833972,"lat":28.5568222695004,"routeCount":16},{"id":"563","name":"KharKhari Rondh","lng":76.941887,"lat":28.56176,"routeCount":16},{"id":"564","name":"Pandwala Crossing","lng":76.952356,"lat":28.574027,"routeCount":16},{"id":"565","name":"KharKhari Jatmal / Surhera Crossing","lng":76.957902,"lat":28.582168,"routeCount":16},{"id":"566","name":"KharKhari Nahar / Khera Dabur","lng":76.959128,"lat":28.58704,"routeCount":16},{"id":"567","name":"Khera Village 2","lng":76.964794,"lat":28.596312,"routeCount":16},{"id":"568","name":"Krishna Nagar / Gopal Nagar","lng":76.972726,"lat":28.606791,"routeCount":15},{"id":"569","name":"Jhatikra Crossing Pandwala Road","lng":76.9950528230485,"lat":28.5846382853658,"routeCount":18},{"id":"570","name":"Rewla Khanpur Crossing","lng":76.980956,"lat":28.572355,"routeCount":17},{"id":"571","name":"Purani Basti Rewla Khanpur","lng":76.977685,"lat":28.569584,"routeCount":18},{"id":"572","name":"Rewla Khanpur Depot","lng":76.9767144144057,"lat":28.5686740652351,"routeCount":12},{"id":"573","name":"Tikri Khurd","lng":77.123838,"lat":28.835983,"routeCount":3},{"id":"574","name":"Tikri Khurd Crossing / AMPC","lng":77.12839,"lat":28.836177,"routeCount":14},{"id":"575","name":"Tikri Khurd Crossing / AMPC","lng":77.128935,"lat":28.835604,"routeCount":14},{"id":"576","name":"Khampur Village","lng":77.132311,"lat":28.824476,"routeCount":13},{"id":"577","name":"Bakauli Village (GT Road)","lng":77.137092,"lat":28.810288,"routeCount":6},{"id":"578","name":"Shani Dham Mandir GT Road","lng":77.14274,"lat":28.80415,"routeCount":1},{"id":"579","name":"Pwd Office","lng":77.138967,"lat":28.8012,"routeCount":13},{"id":"580","name":"Alipur Village GT Road","lng":77.1396,"lat":28.796617,"routeCount":23},{"id":"581","name":"Jind Pur Crossing","lng":77.14415,"lat":28.793233,"routeCount":22},{"id":"582","name":"Sai Mandir","lng":77.141467,"lat":28.78865,"routeCount":20},{"id":"583","name":"Budhpur GT Road","lng":77.141601,"lat":28.782107,"routeCount":25},{"id":"584","name":"Jain Mandir","lng":77.142633,"lat":28.77715,"routeCount":25},{"id":"585","name":"Nangli Poona (GT Road)","lng":77.143267,"lat":28.774167,"routeCount":25},{"id":"586","name":"Gurudwara Siraspur GT Road","lng":77.146126,"lat":28.764956,"routeCount":34},{"id":"587","name":"Kapashera Border","lng":77.082442,"lat":28.522481,"routeCount":11},{"id":"588","name":"Kapashera Village","lng":77.0837,"lat":28.524517,"routeCount":11},{"id":"589","name":"Kapashera Crossing","lng":77.088154,"lat":28.531234,"routeCount":19},{"id":"590","name":"Samalkha Village","lng":77.090371,"lat":28.534492,"routeCount":21},{"id":"591","name":"Samalkha Crossing","lng":77.091434,"lat":28.538205,"routeCount":15},{"id":"592","name":"Puspanjali G Block","lng":77.0735459241414,"lat":28.5422626711678,"routeCount":15},{"id":"593","name":"Dwarka Road","lng":77.065083,"lat":28.544217,"routeCount":15},{"id":"594","name":"Bharthal Under Pass","lng":77.057117,"lat":28.547567,"routeCount":13},{"id":"595","name":"Dwarka Sec-21 Metro Station","lng":77.0566312,"lat":28.5519186,"routeCount":10},{"id":"596","name":"Dwarka Sec-21 Crossing","lng":77.05858,"lat":28.55411,"routeCount":8},{"id":"597","name":"Dwarka Sec 22 Vivanta Hotel","lng":77.061889,"lat":28.558065,"routeCount":7},{"id":"598","name":"Dwarka Sec-20/21 Crossing","lng":77.0627421,"lat":28.5639249,"routeCount":12},{"id":"599","name":"Dwarka Sec-8 Metro Station","lng":77.06691,"lat":28.56622,"routeCount":6},{"id":"600","name":"Shahbad Mohammad Pur School","lng":77.07074,"lat":28.56294,"routeCount":5},{"id":"601","name":"Shahbad Mohammad Pur Village","lng":77.071398,"lat":28.559648,"routeCount":5},{"id":"602","name":"Shahbad Mohammad Pur School","lng":77.07072,"lat":28.56278,"routeCount":5},{"id":"603","name":"Dwarka Sec-8 Metro Station","lng":77.0666171,"lat":28.5675435,"routeCount":11},{"id":"604","name":"Dwarka Sec8","lng":77.06788,"lat":28.56852,"routeCount":3},{"id":"605","name":"Bagdola Village","lng":77.06916,"lat":28.57252,"routeCount":3},{"id":"606","name":"Dwarka Sec8 DTC Depot","lng":77.07134,"lat":28.5758,"routeCount":3},{"id":"607","name":"National Malariya Research Centre (Dwarka)","lng":77.07594,"lat":28.5765,"routeCount":5},{"id":"608","name":"Dada Dev Mandir","lng":77.07708,"lat":28.57818,"routeCount":3},{"id":"609","name":"National Malariya Research Centre (Dwarka)","lng":77.07616,"lat":28.57876,"routeCount":5},{"id":"610","name":"Royal Residency (Dwarka)","lng":77.0703,"lat":28.5815,"routeCount":8},{"id":"611","name":"Munirka Flats (Dwarka)","lng":77.06701,"lat":28.58367,"routeCount":8},{"id":"612","name":"Dwarka Sec 1","lng":77.073519,"lat":28.594499,"routeCount":20},{"id":"613","name":"Sulabh International Centre","lng":77.080944,"lat":28.59687,"routeCount":5},{"id":"614","name":"Mahaveer Enclave III","lng":77.08199,"lat":28.60084,"routeCount":5},{"id":"615","name":"Dashrath Puri","lng":77.08266,"lat":28.60353,"routeCount":5},{"id":"616","name":"Vijay Enclave (Palam-Dabri Road)","lng":77.08111,"lat":28.60654,"routeCount":5},{"id":"617","name":"Dabri Village","lng":77.081954,"lat":28.608043,"routeCount":5},{"id":"618","name":"Dabri Crossing Dwarka Road","lng":77.0860911074767,"lat":28.6128332543193,"routeCount":12},{"id":"619","name":"C2D Janakpuri","lng":77.086985,"lat":28.61446,"routeCount":4},{"id":"620","name":"C4E Janakpuri","lng":77.087976,"lat":28.616659,"routeCount":18},{"id":"621","name":"C2B Janak Puri","lng":77.088818,"lat":28.621222,"routeCount":19},{"id":"622","name":"Bharti College","lng":77.09365,"lat":28.62235,"routeCount":6},{"id":"623","name":"Virender Nagar / Dilli Haat","lng":77.09615,"lat":28.6232,"routeCount":5},{"id":"624","name":"Hari Nagar Depot","lng":77.10109,"lat":28.62541,"routeCount":2},{"id":"625","name":"G Block Hari Nagar","lng":77.100067,"lat":28.627917,"routeCount":12},{"id":"626","name":"Fateh Nagar","lng":77.098567,"lat":28.631133,"routeCount":12},{"id":"627","name":"Tilak Nagar Jail Road","lng":77.096692,"lat":28.635737,"routeCount":4},{"id":"628","name":"Tilak Nagar Crossing (Najafgarh Road)","lng":77.092959,"lat":28.635322,"routeCount":23},{"id":"629","name":"Janak Puri Check Post","lng":77.0888298522768,"lat":28.633858754923,"routeCount":42},{"id":"630","name":"B2A Janakpuri","lng":77.084585,"lat":28.632306,"routeCount":45},{"id":"631","name":"Janak Puri District Centre","lng":77.080047,"lat":28.630488,"routeCount":53},{"id":"632","name":"Dholi Piao","lng":77.076482,"lat":28.629119,"routeCount":51},{"id":"633","name":"Vikaspuri Crossing","lng":77.06969,"lat":28.626449,"routeCount":57},{"id":"634","name":"Uttam Nagar Terminal","lng":77.06498,"lat":28.624597,"routeCount":67},{"id":"635","name":"Mangla Puri Terminal","lng":77.0870166666667,"lat":28.5899833333333,"routeCount":8},{"id":"636","name":"Health Centre","lng":77.0814,"lat":28.591,"routeCount":6},{"id":"637","name":"Dwarka Crossing / Maharaja Agrasen Hospital","lng":77.079486,"lat":28.592833,"routeCount":20},{"id":"638","name":"Dwarka Sec 1","lng":77.073867,"lat":28.594283,"routeCount":17},{"id":"639","name":"J M International School","lng":77.070134,"lat":28.595421,"routeCount":19},{"id":"640","name":"Dwarka Sec 2-6","lng":77.064944,"lat":28.597335,"routeCount":21},{"id":"641","name":"Madhu Vihar","lng":77.061168,"lat":28.599779,"routeCount":21},{"id":"642","name":"Rajapuri","lng":77.0551,"lat":28.6038,"routeCount":8},{"id":"643","name":"Matiyala Xing","lng":77.051737,"lat":28.605032,"routeCount":15},{"id":"644","name":"DPS Matiyala","lng":77.046323,"lat":28.604518,"routeCount":15},{"id":"645","name":"Dwarka Sec 3-4","lng":77.043175,"lat":28.602648,"routeCount":16},{"id":"646","name":"Dwarka Sec 13-3 Xing","lng":77.040932,"lat":28.602551,"routeCount":16},{"id":"647","name":"MRV School Sec 13 Dwarka","lng":77.038876,"lat":28.603988,"routeCount":16},{"id":"648","name":"Dwarka Sec 13","lng":77.036274,"lat":28.605684,"routeCount":16},{"id":"649","name":"NSIT (Netaji Subhas Institute) / Sulahkul Mandir","lng":77.035099,"lat":28.607416,"routeCount":15},{"id":"650","name":"Suraj Vihar","lng":77.034031,"lat":28.610723,"routeCount":15},{"id":"651","name":"Kakrola More","lng":77.0295846256512,"lat":28.6189259761464,"routeCount":46},{"id":"652","name":"Kakrola Bridge","lng":77.024876,"lat":28.619809,"routeCount":46},{"id":"653","name":"Nangli Dairy","lng":77.0176653844578,"lat":28.6197008886414,"routeCount":45},{"id":"654","name":"Chhathh Ghat Park","lng":77.015219,"lat":28.618803,"routeCount":44},{"id":"655","name":"Arjun Park","lng":77.013083,"lat":28.618083,"routeCount":37},{"id":"656","name":"Nangli Sakrawati Crossing","lng":77.0080117622372,"lat":28.6162575580097,"routeCount":30},{"id":"657","name":"Nangli Sakrawati","lng":77.0039039906278,"lat":28.6146300895119,"routeCount":21},{"id":"658","name":"Sai Baba Mandir","lng":76.999497,"lat":28.613536,"routeCount":46},{"id":"659","name":"Power House NajafGarh","lng":76.995552,"lat":28.612929,"routeCount":48},{"id":"660","name":"Tuda Mandi","lng":76.9923600178753,"lat":28.6125090959708,"routeCount":38},{"id":"661","name":"Nizamuddin Railway Station","lng":77.253259,"lat":28.586388,"routeCount":12},{"id":"662","name":"Rajdoot Hotel","lng":77.2527,"lat":28.5825,"routeCount":10},{"id":"663","name":"Ashram (Hari Nagar)","lng":77.256841,"lat":28.57449,"routeCount":10},{"id":"664","name":"Sri Niwaspuri / PG DAV College Lajpat Nagar","lng":77.253117,"lat":28.56675,"routeCount":19},{"id":"665","name":"ESI Hospital Okhla","lng":77.281062,"lat":28.51529,"routeCount":8},{"id":"666","name":"Central Work Shop II","lng":77.2835,"lat":28.5164,"routeCount":5},{"id":"667","name":"Okhla Depot IV CWS II","lng":77.2851174,"lat":28.5187039,"routeCount":5},{"id":"668","name":"ISBT Kashmere Gate Terminal","lng":77.227456,"lat":28.66696,"routeCount":6},{"id":"669","name":"Tees Hazari Court","lng":77.21926,"lat":28.666662,"routeCount":22},{"id":"670","name":"St Stephen Hospital","lng":77.2149,"lat":28.6671,"routeCount":22},{"id":"671","name":"Ice Factory (Rani Jhansi Road)","lng":77.208872,"lat":28.666336,"routeCount":22},{"id":"672","name":"Roshnara Road","lng":77.204663,"lat":28.669035,"routeCount":24},{"id":"673","name":"Roshnara Bagh","lng":77.2007,"lat":28.6717,"routeCount":24},{"id":"674","name":"Clock Tower","lng":77.201633,"lat":28.6774,"routeCount":24},{"id":"675","name":"Shakti Nagar","lng":77.1993,"lat":28.6804,"routeCount":24},{"id":"676","name":"Shakti Nagar Nangia Park","lng":77.195746,"lat":28.679846,"routeCount":6},{"id":"677","name":"Chowki No 2 / Gulabi Bagh Crossing","lng":77.188967,"lat":28.677233,"routeCount":6},{"id":"678","name":"Gulabi Bagh","lng":77.188525,"lat":28.674998,"routeCount":8},{"id":"679","name":"Shastri Nagar A Block","lng":77.186038,"lat":28.672401,"routeCount":6},{"id":"680","name":"Subhadra Colony","lng":77.184219,"lat":28.671105,"routeCount":5},{"id":"681","name":"Shastri Nagar Metro Station","lng":77.181336,"lat":28.669997,"routeCount":11},{"id":"682","name":"Shastri Nagar E Block","lng":77.17605,"lat":28.6711,"routeCount":11},{"id":"683","name":"Shastri Nagar Shiv Mandir","lng":77.173,"lat":28.6716,"routeCount":11},{"id":"684","name":"Inderlok Metro Station","lng":77.168983,"lat":28.673633,"routeCount":8},{"id":"685","name":"Kanhaiya Nagar","lng":77.165433,"lat":28.680933,"routeCount":4},{"id":"686","name":"B3 Keshav Puram","lng":77.1629,"lat":28.6861,"routeCount":5},{"id":"687","name":"B-4 Keshav Puram","lng":77.162267,"lat":28.687583,"routeCount":5},{"id":"689","name":"Mangol Pur School (Kanjhawla Road)","lng":77.105225,"lat":28.694632,"routeCount":21},{"id":"690","name":"Avantika Xing","lng":77.097085,"lat":28.698239,"routeCount":11},{"id":"692","name":"Rohini Sec 20/21 More","lng":77.0743,"lat":28.7155,"routeCount":19},{"id":"693","name":"Satyapuram Jharoda","lng":76.943439,"lat":28.665305,"routeCount":1},{"id":"694","name":"Jharoda Nala Crossing","lng":76.9479,"lat":28.6586,"routeCount":1},{"id":"695","name":"Jharoda Kalan","lng":76.950083,"lat":28.655083,"routeCount":1},{"id":"696","name":"Jharoda Village","lng":76.9531,"lat":28.65085,"routeCount":1},{"id":"697","name":"S.S. Kanya Vidhyalaya","lng":76.956119,"lat":28.646688,"routeCount":1},{"id":"698","name":"PTS Jharoda","lng":76.958365,"lat":28.642863,"routeCount":1},{"id":"699","name":"CRPF Jharoda","lng":76.960707,"lat":28.638805,"routeCount":1},{"id":"700","name":"Sainik Enclave Jharoda","lng":76.963783,"lat":28.633583,"routeCount":1},{"id":"701","name":"Saraswati Kunj Jharoda","lng":76.965683,"lat":28.63045,"routeCount":1},{"id":"702","name":"Naveen Palace","lng":76.967333,"lat":28.627867,"routeCount":1},{"id":"703","name":"Baba Haridass Nagar","lng":76.970483,"lat":28.623817,"routeCount":1},{"id":"704","name":"New Anaj Mandi","lng":76.974408,"lat":28.619058,"routeCount":1},{"id":"705","name":"Surakh Pur Crossing","lng":76.976417,"lat":28.6155,"routeCount":2},{"id":"706","name":"Uttam Nagar","lng":77.068195,"lat":28.626011,"routeCount":43},{"id":"707","name":"A-3 Janak Puri","lng":77.079183,"lat":28.619633,"routeCount":14},{"id":"708","name":"C-2 Janakpuri","lng":77.0842,"lat":28.6219,"routeCount":15},{"id":"709","name":"Bharti College / C2B Janak Puri","lng":77.092199,"lat":28.621752,"routeCount":8},{"id":"710","name":"C4E Janakpuri","lng":77.088345,"lat":28.617217,"routeCount":17},{"id":"711","name":"Central Market C3 Janakpuri","lng":77.092583,"lat":28.615417,"routeCount":10},{"id":"712","name":"C-4H Janakpuri","lng":77.09525,"lat":28.616333,"routeCount":14},{"id":"713","name":"Janakpuri C-5A","lng":77.0977,"lat":28.6148,"routeCount":14},{"id":"714","name":"Desu Colony Janakpuri","lng":77.0989138,"lat":28.6109508,"routeCount":14},{"id":"715","name":"Zunk Market","lng":77.1121149,"lat":28.6182233,"routeCount":16},{"id":"716","name":"Gulab House","lng":77.1171,"lat":28.622267,"routeCount":16},{"id":"717","name":"Bobby Soap","lng":77.1186,"lat":28.62395,"routeCount":16},{"id":"718","name":"PS Mayapuri","lng":77.11975,"lat":28.625367,"routeCount":16},{"id":"719","name":"Metal Forging","lng":77.122817,"lat":28.629,"routeCount":15},{"id":"720","name":"Government Press","lng":77.127633,"lat":28.634617,"routeCount":24},{"id":"721","name":"Mayapuri Depot","lng":77.12835,"lat":28.63685,"routeCount":25},{"id":"722","name":"Naraina Vihar / Indra Market","lng":77.135333,"lat":28.626883,"routeCount":16},{"id":"723","name":"Payal Cinema","lng":77.1384,"lat":28.6314,"routeCount":16},{"id":"724","name":"Loha Mandi","lng":77.145217,"lat":28.641383,"routeCount":11},{"id":"725","name":"Bentax","lng":77.147667,"lat":28.644717,"routeCount":11},{"id":"726","name":"Naraina Depot","lng":77.1513,"lat":28.64905,"routeCount":11},{"id":"727","name":"Pandav Nagar","lng":77.153678,"lat":28.650051,"routeCount":12},{"id":"728","name":"Shadipur Colony","lng":77.1561,"lat":28.6516,"routeCount":11},{"id":"729","name":"Shadipur Metro Station","lng":77.1587,"lat":28.6515,"routeCount":26},{"id":"730","name":"West Patel Nagar","lng":77.164783,"lat":28.64795,"routeCount":27},{"id":"731","name":"South Patel Nagar (Metro Station)","lng":77.1689,"lat":28.6454,"routeCount":26},{"id":"732","name":"East Patel Nagar","lng":77.17315,"lat":28.642967,"routeCount":27},{"id":"733","name":"Rajendra Place","lng":77.1773,"lat":28.6425,"routeCount":22},{"id":"734","name":"Telephone Exchange Karol Bagh","lng":77.181917,"lat":28.64315,"routeCount":14},{"id":"735","name":"Karol Bagh Metro Station","lng":77.189,"lat":28.6442,"routeCount":22},{"id":"736","name":"Pusa Road Petrol Pump Sadhu Vaswani Marg","lng":77.1934,"lat":28.6448,"routeCount":22},{"id":"737","name":"Meghdoot Bhawan","lng":77.200983,"lat":28.644,"routeCount":20},{"id":"738","name":"Videocon Tower","lng":77.2036,"lat":28.6441,"routeCount":7},{"id":"739","name":"Paharganj Police Station","lng":77.208232,"lat":28.646179,"routeCount":19},{"id":"740","name":"Dispensary Paharganj","lng":77.2133,"lat":28.6452,"routeCount":16},{"id":"741","name":"Ajmeri Gate / Kamla Market","lng":77.225733,"lat":28.643383,"routeCount":16},{"id":"742","name":"JLN Marg","lng":77.228325,"lat":28.642068,"routeCount":27},{"id":"743","name":"Zakir Husain College","lng":77.230002,"lat":28.641166,"routeCount":27},{"id":"744","name":"Turkman Gate / GB Pant Hospital","lng":77.233136,"lat":28.641834,"routeCount":25},{"id":"745","name":"Delite Cinema","lng":77.235016,"lat":28.6412,"routeCount":27},{"id":"746","name":"Delhi Gate","lng":77.238584,"lat":28.64073,"routeCount":25},{"id":"747","name":"Red Fort","lng":77.23645,"lat":28.653961,"routeCount":4},{"id":"748","name":"GPO","lng":77.234569,"lat":28.661944,"routeCount":36},{"id":"749","name":"Guru Govind Singh University (Kashmere Gate)","lng":77.230123,"lat":28.665331,"routeCount":36},{"id":"750","name":"ISBT Kashmere Gate","lng":77.229348,"lat":28.666756,"routeCount":20},{"id":"751","name":"Mori Gate Terminal","lng":77.225883,"lat":28.666517,"routeCount":7},{"id":"752","name":"Bawana Sec 1 Cluster Depot","lng":77.0411360466838,"lat":28.7950053613795,"routeCount":36},{"id":"755","name":"Delhi Jal Board Bawana","lng":77.058038,"lat":28.815521,"routeCount":31},{"id":"756","name":"Sannoth Crossing / Ghoga Crossing","lng":77.063606,"lat":28.819594,"routeCount":26},{"id":"757","name":"Sannoth Village","lng":77.07098,"lat":28.81561,"routeCount":9},{"id":"758","name":"Holambi Kalan JJ Colony","lng":77.087395,"lat":28.809729,"routeCount":7},{"id":"760","name":"Holambi Kalan Crossing","lng":77.10746,"lat":28.809357,"routeCount":8},{"id":"761","name":"Jeet Farm","lng":77.114663,"lat":28.800239,"routeCount":8},{"id":"762","name":"Holambi Khurd Crossing","lng":77.117385,"lat":28.797139,"routeCount":8},{"id":"763","name":"Alipur Garhi","lng":77.127346,"lat":28.79804,"routeCount":8},{"id":"764","name":"Alipur Village","lng":77.133138,"lat":28.797253,"routeCount":8},{"id":"765","name":"Pwd Office","lng":77.1386,"lat":28.8022,"routeCount":25},{"id":"766","name":"Bakauli Village","lng":77.135652,"lat":28.811931,"routeCount":13},{"id":"767","name":"Khampur Village","lng":77.13183,"lat":28.824805,"routeCount":13},{"id":"768","name":"Tikri Khurd Crossing","lng":77.12846,"lat":28.835211,"routeCount":2},{"id":"769","name":"Tikri Khurd","lng":77.1238,"lat":28.835878,"routeCount":3},{"id":"770","name":"Anand Vihar ISBT Terminal","lng":77.314904,"lat":28.646328,"routeCount":28},{"id":"771","name":"Ram Prastha Crossing","lng":77.319926,"lat":28.660523,"routeCount":17},{"id":"772","name":"Ram Prastha Temple","lng":77.320362,"lat":28.663552,"routeCount":17},{"id":"773","name":"Surya Nagar (Gazipur Road)","lng":77.321483,"lat":28.666954,"routeCount":17},{"id":"774","name":"Shahdara Border GT Road","lng":77.321331,"lat":28.676241,"routeCount":9},{"id":"775","name":"Jhilmil Xing","lng":77.317518,"lat":28.676186,"routeCount":10},{"id":"776","name":"Dilshad Garden GT Road","lng":77.3118,"lat":28.675883,"routeCount":8},{"id":"777","name":"Telephone Exchange","lng":77.309217,"lat":28.675817,"routeCount":8},{"id":"778","name":"Mansarovar Park Metro Station","lng":77.300119,"lat":28.675479,"routeCount":8},{"id":"779","name":"Welcome Colony Metro Station","lng":77.275,"lat":28.672,"routeCount":6},{"id":"780","name":"Welcome Colony","lng":77.2733799557566,"lat":28.6717988050285,"routeCount":8},{"id":"781","name":"Seelampur Metro Station","lng":77.266485,"lat":28.670722,"routeCount":20},{"id":"782","name":"Dharam Pura","lng":77.261917,"lat":28.670717,"routeCount":19},{"id":"783","name":"Shastri Park","lng":77.2571,"lat":28.6723,"routeCount":14},{"id":"784","name":"Shastri Park","lng":77.251804,"lat":28.673195,"routeCount":26},{"id":"785","name":"Shyam Giri Mandir","lng":77.248024,"lat":28.67382,"routeCount":27},{"id":"786","name":"Shastri Park DMRC Depot","lng":77.243433,"lat":28.674167,"routeCount":26},{"id":"787","name":"Shastri Park Metro Depot","lng":77.241183,"lat":28.673433,"routeCount":27},{"id":"788","name":"ISBT Bridge","lng":77.228774,"lat":28.6692301,"routeCount":23},{"id":"789","name":"Azad Market","lng":77.2075,"lat":28.6627,"routeCount":8},{"id":"790","name":"Bara Hindu Rao","lng":77.204049,"lat":28.660752,"routeCount":20},{"id":"791","name":"Model Basti","lng":77.203685,"lat":28.657229,"routeCount":20},{"id":"792","name":"Guru Govind Singh Marg","lng":77.198831,"lat":28.655331,"routeCount":17},{"id":"793","name":"Tibiya College","lng":77.194648,"lat":28.65754,"routeCount":17},{"id":"794","name":"Ram Jas Road","lng":77.191154,"lat":28.659086,"routeCount":17},{"id":"795","name":"Liberty Cinema","lng":77.188866,"lat":28.659825,"routeCount":17},{"id":"796","name":"Sarai Rohilla Govt Qtrs (Rohtak Road)","lng":77.185019,"lat":28.661182,"routeCount":17},{"id":"797","name":"Sarai Rohila (Rohtak Road)","lng":77.182083,"lat":28.662538,"routeCount":30},{"id":"798","name":"Anand Parvat Industrial Area","lng":77.174292,"lat":28.665198,"routeCount":20},{"id":"799","name":"Daya Basti Flyover","lng":77.170126,"lat":28.666349,"routeCount":20},{"id":"800","name":"Zakhira Flyover","lng":77.165402,"lat":28.668391,"routeCount":23},{"id":"801","name":"Ashok Park Main","lng":77.156585,"lat":28.671287,"routeCount":27},{"id":"802","name":"Ram Pura","lng":77.15387,"lat":28.671806,"routeCount":26},{"id":"803","name":"Punjabi Bagh West Power House","lng":77.146897,"lat":28.672782,"routeCount":27},{"id":"804","name":"Punjabi Bagh Terminal (Rohtak Road)","lng":77.143689,"lat":28.673121,"routeCount":27},{"id":"805","name":"C 4 Yamuna Vihar","lng":77.278463,"lat":28.702199,"routeCount":22},{"id":"806","name":"Yamuna Vihar Brijpuri","lng":77.273744,"lat":28.702588,"routeCount":21},{"id":"807","name":"B-Block Yamuna Vihar","lng":77.271309,"lat":28.702752,"routeCount":17},{"id":"808","name":"Bhajanpura","lng":77.263706,"lat":28.703351,"routeCount":15},{"id":"809","name":"Khajuri","lng":77.2562,"lat":28.7039,"routeCount":7},{"id":"810","name":"Garhi Maidu","lng":77.255533,"lat":28.6992,"routeCount":7},{"id":"811","name":"Gamri Extn Pusta No.5","lng":77.254951,"lat":28.695121,"routeCount":7},{"id":"812","name":"Kartar Nagar","lng":77.254167,"lat":28.68945,"routeCount":7},{"id":"813","name":"Jagjit Nagar","lng":77.254567,"lat":28.686317,"routeCount":7},{"id":"814","name":"Pusta No-2","lng":77.255217,"lat":28.683767,"routeCount":6},{"id":"815","name":"New Usman Pur Pusta No-1","lng":77.256183,"lat":28.679983,"routeCount":6},{"id":"816","name":"Zero Pusta","lng":77.256783,"lat":28.6778,"routeCount":7},{"id":"817","name":"Shastri Park Pusta Road","lng":77.2563,"lat":28.674017,"routeCount":7},{"id":"818","name":"Ludlow Castle","lng":77.225834,"lat":28.672284,"routeCount":22},{"id":"819","name":"Exchange Store / Civil Lines Metro Station","lng":77.224848,"lat":28.676749,"routeCount":22},{"id":"820","name":"IP College","lng":77.22396,"lat":28.67961,"routeCount":1},{"id":"821","name":"Old Secretariat (Postal Account Office)","lng":77.222172,"lat":28.683783,"routeCount":27},{"id":"822","name":"Vidhan Sabha Metro Station","lng":77.221442,"lat":28.687802,"routeCount":27},{"id":"823","name":"Khyber Pass","lng":77.221168,"lat":28.690613,"routeCount":27},{"id":"824","name":"Mall Road","lng":77.218432,"lat":28.693646,"routeCount":30},{"id":"825","name":"Vishwa Vidyalaya Metro Station","lng":77.214096,"lat":28.695213,"routeCount":30},{"id":"826","name":"INS Hostel","lng":77.211705,"lat":28.696149,"routeCount":30},{"id":"827","name":"GTB Nagar / Haqiqat Nagar","lng":77.207504,"lat":28.698223,"routeCount":4},{"id":"829","name":"Shivaji Park","lng":77.224181,"lat":28.638657,"routeCount":23},{"id":"830","name":"Super Bazar","lng":77.223088,"lat":28.632651,"routeCount":48},{"id":"831","name":"Palika Kendra","lng":77.216783,"lat":28.628567,"routeCount":8},{"id":"832","name":"P S Parliament / Jantar Mantar","lng":77.21432,"lat":28.625507,"routeCount":29},{"id":"833","name":"Aakashwani Bhawan","lng":77.212714,"lat":28.620515,"routeCount":23},{"id":"834","name":"Krishi Bhawan","lng":77.2124,"lat":28.615,"routeCount":3},{"id":"835","name":"Udyog Bhawan","lng":77.2122,"lat":28.6126,"routeCount":15},{"id":"836","name":"Sunehri Masjid/ G Block","lng":77.209798,"lat":28.609631,"routeCount":9},{"id":"837","name":"Krishan Menon Marg","lng":77.2111,"lat":28.6051,"routeCount":8},{"id":"838","name":"PS Tuglak Road","lng":77.211317,"lat":28.599917,"routeCount":4},{"id":"839","name":"Tughlaq Crescent","lng":77.212,"lat":28.5949,"routeCount":4},{"id":"840","name":"SJ Madrasa","lng":77.212779,"lat":28.586708,"routeCount":9},{"id":"841","name":"SJ Airport","lng":77.212605,"lat":28.584236,"routeCount":12},{"id":"842","name":"INA Colony","lng":77.2102,"lat":28.5759,"routeCount":15},{"id":"843","name":"Kidwai Nagar","lng":77.209568,"lat":28.574012,"routeCount":17},{"id":"844","name":"AIIMS","lng":77.20795,"lat":28.566983,"routeCount":5},{"id":"845","name":"Yusuf Sarai","lng":77.2077,"lat":28.5627,"routeCount":4},{"id":"846","name":"Green Park","lng":77.2068,"lat":28.5572,"routeCount":4},{"id":"847","name":"Hauz Khas","lng":77.2051,"lat":28.5529,"routeCount":4},{"id":"848","name":"Padhmini Enclave","lng":77.2038,"lat":28.5498,"routeCount":4},{"id":"849","name":"IIT Gate","lng":77.2025,"lat":28.5462,"routeCount":4},{"id":"850","name":"Panchsheel Club / Sarvpriya Vihar","lng":77.205014,"lat":28.543924,"routeCount":7},{"id":"851","name":"Bhavishya Nidhi Enclave","lng":77.209567,"lat":28.5428,"routeCount":4},{"id":"852","name":"Begumpur (Malviya Nagar)","lng":77.2098981836701,"lat":28.5370086315091,"routeCount":4},{"id":"853","name":"Malviya Nagar","lng":77.208553,"lat":28.535406,"routeCount":4},{"id":"854","name":"Aurobindo College","lng":77.2046,"lat":28.5326,"routeCount":4},{"id":"855","name":"Geetanjali Enclave","lng":77.199633,"lat":28.530317,"routeCount":4},{"id":"856","name":"PNB Geetanjali","lng":77.2014,"lat":28.529417,"routeCount":7},{"id":"857","name":"Saket A Block (Malviya Nagar Metro Station)","lng":77.205,"lat":28.528,"routeCount":7},{"id":"858","name":"Press Enclave","lng":77.2091,"lat":28.5282,"routeCount":7},{"id":"859","name":"HaujRani / MaxHospital","lng":77.2119,"lat":28.5285,"routeCount":7},{"id":"860","name":"Hauj Rani","lng":77.2158,"lat":28.5297,"routeCount":3},{"id":"861","name":"Khirki Village","lng":77.21835,"lat":28.530183,"routeCount":3},{"id":"862","name":"PSRI","lng":77.223883,"lat":28.53145,"routeCount":3},{"id":"863","name":"Vocational College","lng":77.22695,"lat":28.532283,"routeCount":3},{"id":"864","name":"Sheikh Sarai Phase II","lng":77.230667,"lat":28.53305,"routeCount":3},{"id":"865","name":"Pushpa Bhawan","lng":77.231201,"lat":28.527,"routeCount":1},{"id":"866","name":"Madangir DDA Flats","lng":77.2303766300063,"lat":28.524690785977,"routeCount":5},{"id":"867","name":"Ambedkar Nagar Terminal","lng":77.2295507,"lat":28.5150204,"routeCount":6},{"id":"868","name":"Ambedkar Nagar Depot","lng":77.2284,"lat":28.515267,"routeCount":12},{"id":"869","name":"Khanpur Extension / Devli Xing","lng":77.2344,"lat":28.514,"routeCount":12},{"id":"870","name":"Vayu Sena Bad (Tigri)","lng":77.2389,"lat":28.5129,"routeCount":12},{"id":"871","name":"Batra Hospital / Satya Narayan Mandir","lng":77.2433,"lat":28.5124,"routeCount":12},{"id":"872","name":"Hamdard Nagar / Sangam Vihar","lng":77.248667,"lat":28.512167,"routeCount":17},{"id":"873","name":"Kendriya Terminal (Pt. Pant Marg)","lng":77.2064,"lat":28.6214,"routeCount":33},{"id":"874","name":"Kendriya Terminal / Gurudwara Rakab Gunj","lng":77.205283,"lat":28.621017,"routeCount":36},{"id":"875","name":"Talkatora Road","lng":77.2031,"lat":28.6222,"routeCount":36},{"id":"876","name":"Dr. RML Hospital","lng":77.1965567,"lat":28.6223961,"routeCount":21},{"id":"877","name":"Talkatora Stadium Garden","lng":77.1942054,"lat":28.6212541,"routeCount":21},{"id":"878","name":"Sardar Patel Road Xing (11 Murti)","lng":77.1908,"lat":28.611,"routeCount":16},{"id":"879","name":"Palika Kutumb","lng":77.1891,"lat":28.6078,"routeCount":19},{"id":"880","name":"Bhartiya Sadhu Samaj","lng":77.1845,"lat":28.603917,"routeCount":21},{"id":"881","name":"Railway Colony (Sardar Patel Marg)","lng":77.1785,"lat":28.600783,"routeCount":23},{"id":"882","name":"Bapu Dham","lng":77.1758,"lat":28.5994,"routeCount":23},{"id":"883","name":"Officer Enclave S.P Marg","lng":77.1713,"lat":28.597,"routeCount":22},{"id":"884","name":"Dhaula Kuan","lng":77.163492,"lat":28.592721,"routeCount":38},{"id":"885","name":"Golf Club","lng":77.159084,"lat":28.592403,"routeCount":20},{"id":"886","name":"R R Line","lng":77.150948,"lat":28.59572,"routeCount":22},{"id":"887","name":"S O Flats Carriappa Marg","lng":77.139733,"lat":28.6002,"routeCount":8},{"id":"888","name":"Thimiyan Park","lng":77.133483,"lat":28.60265,"routeCount":19},{"id":"889","name":"Kirbi Place","lng":77.1265753,"lat":28.6051995,"routeCount":20},{"id":"890","name":"Supply Depot","lng":77.123233,"lat":28.606633,"routeCount":33},{"id":"891","name":"Janak Setu","lng":77.1138,"lat":28.6104,"routeCount":32},{"id":"892","name":"Lajwanti Garden","lng":77.106342,"lat":28.613845,"routeCount":28},{"id":"893","name":"D Block Janak Puri","lng":77.10369,"lat":28.610606,"routeCount":27},{"id":"894","name":"SagarPur Vashisht park","lng":77.0996,"lat":28.609254,"routeCount":46},{"id":"895","name":"Desu Colony Janakpuri","lng":77.098786,"lat":28.610901,"routeCount":16},{"id":"896","name":"C5A Janakpuri","lng":77.097,"lat":28.6155,"routeCount":16},{"id":"897","name":"Central Market C3 Janakpuri","lng":77.092367,"lat":28.61525,"routeCount":16},{"id":"898","name":"C2 Janakpuri","lng":77.0841,"lat":28.6216,"routeCount":18},{"id":"899","name":"A3 Janak Puri","lng":77.079267,"lat":28.619583,"routeCount":18},{"id":"900","name":"Janak Puri","lng":77.077135,"lat":28.617945,"routeCount":33},{"id":"901","name":"Jivan Park","lng":77.073604,"lat":28.619637,"routeCount":35},{"id":"902","name":"Tilak Pul","lng":77.070002,"lat":28.621389,"routeCount":35},{"id":"903","name":"Uttam Nagar /#REF!  Janak Puri","lng":77.068009,"lat":28.624,"routeCount":35},{"id":"904","name":"Tilak Nagar Terminal","lng":77.0957438603281,"lat":28.6363235433356,"routeCount":31},{"id":"905","name":"Uttam Nagar","lng":77.061189,"lat":28.623129,"routeCount":34},{"id":"906","name":"Prem Nagar","lng":77.056719,"lat":28.621893,"routeCount":33},{"id":"907","name":"Om Vihar","lng":77.052669,"lat":28.621079,"routeCount":32},{"id":"908","name":"Kiran Garden","lng":77.049872,"lat":28.620776,"routeCount":7},{"id":"909","name":"Nawada","lng":77.04552,"lat":28.620222,"routeCount":38},{"id":"910","name":"Mohan Garden","lng":77.039162961751,"lat":28.6200493466924,"routeCount":31},{"id":"911","name":"Sewak Park Dwarka More Metro Station","lng":77.033731,"lat":28.619263,"routeCount":39},{"id":"914","name":"Police Station Najafgarh","lng":76.983288,"lat":28.609477,"routeCount":12},{"id":"915","name":"Dhansa Stand","lng":76.9779095460606,"lat":28.6114911357481,"routeCount":49},{"id":"916","name":"Khera More","lng":76.97401,"lat":28.610938,"routeCount":47},{"id":"918","name":"Nanak Piyau","lng":76.967157118307,"lat":28.6091779240052,"routeCount":33},{"id":"919","name":"Indra Service Station","lng":76.958778258301,"lat":28.6085418137362,"routeCount":33},{"id":"920","name":"Mitraon Crossing","lng":76.9511722513845,"lat":28.6081146125039,"routeCount":28},{"id":"921","name":"Mitraon Village","lng":76.9473243300908,"lat":28.6080681907939,"routeCount":30},{"id":"922","name":"Mundhela Khurd School","lng":76.896431,"lat":28.616066,"routeCount":3},{"id":"923","name":"Mundhela Khurd Village","lng":76.893091,"lat":28.617177,"routeCount":3},{"id":"924","name":"Jhingola Village","lng":77.199706,"lat":28.83096,"routeCount":2},{"id":"925","name":"Jhingola Crossing","lng":77.18802,"lat":28.831184,"routeCount":2},{"id":"926","name":"Akbar Pur Majra","lng":77.182394,"lat":28.834531,"routeCount":2},{"id":"927","name":"Akbar Pur Majra Crossing","lng":77.179184,"lat":28.832511,"routeCount":2},{"id":"928","name":"Bakhtawar Pur Garhi","lng":77.178662,"lat":28.82942,"routeCount":2},{"id":"929","name":"Bakhtawar Pur Primary School","lng":77.174563,"lat":28.825833,"routeCount":5},{"id":"930","name":"Bakhtawar Pur Village","lng":77.171555,"lat":28.82208,"routeCount":6},{"id":"931","name":"Triveni Colony","lng":77.166323,"lat":28.818615,"routeCount":6},{"id":"932","name":"Bakhtawar Pur School","lng":77.161217,"lat":28.814533,"routeCount":6},{"id":"933","name":"Palla More","lng":77.143775,"lat":28.80336,"routeCount":6},{"id":"934","name":"Mcd Store","lng":77.142333,"lat":28.793717,"routeCount":22},{"id":"935","name":"Jahangirpuri GT Road","lng":77.1634,"lat":28.7252,"routeCount":5},{"id":"936","name":"Ice Factory (Rani Jhansi Road)","lng":77.209036,"lat":28.667228,"routeCount":21},{"id":"937","name":"Badarpur Border (T)","lng":77.303489,"lat":28.493092,"routeCount":31},{"id":"938","name":"Jaitpur Mor","lng":77.302117,"lat":28.497367,"routeCount":3},{"id":"939","name":"Badarpur M B Road / Rajiv Gandhi Stadium","lng":77.299004,"lat":28.499178,"routeCount":9},{"id":"940","name":"Prehlad Pur","lng":77.293883,"lat":28.500583,"routeCount":10},{"id":"941","name":"Surajkund Crossing","lng":77.289765,"lat":28.501567,"routeCount":10},{"id":"942","name":"Lal Kuan","lng":77.2833,"lat":28.5023,"routeCount":10},{"id":"943","name":"Prem Nagar","lng":77.2801,"lat":28.5036,"routeCount":10},{"id":"944","name":"Maa Anand Mayee Marg","lng":77.27835,"lat":28.5061,"routeCount":8},{"id":"945","name":"Tehkhand Depot DTC","lng":77.280917,"lat":28.51095,"routeCount":9},{"id":"946","name":"ESI Hospital","lng":77.281333,"lat":28.5143,"routeCount":5},{"id":"947","name":"Holambi Kalan Terminal","lng":77.096118,"lat":28.801906,"routeCount":8},{"id":"948","name":"Holambi Khurd","lng":77.096104,"lat":28.799903,"routeCount":9},{"id":"949","name":"Holambi Khurd DRID College","lng":77.097915,"lat":28.795403,"routeCount":8},{"id":"950","name":"Minda Farm","lng":77.11041,"lat":28.79584,"routeCount":1},{"id":"951","name":"Azadpur Terminal","lng":77.180271,"lat":28.707667,"routeCount":30},{"id":"952","name":"Model Town III","lng":77.185301,"lat":28.706127,"routeCount":29},{"id":"953","name":"Model Town II","lng":77.190629,"lat":28.704282,"routeCount":29},{"id":"954","name":"Alpana Cinema (Model Town Mtr Stn)","lng":77.193837,"lat":28.703017,"routeCount":29},{"id":"955","name":"New Police Line","lng":77.202973,"lat":28.699589,"routeCount":27},{"id":"956","name":"Exchange Store / Civil Lines Metro Station","lng":77.225033,"lat":28.676617,"routeCount":16},{"id":"957","name":"Red Fort","lng":77.236946,"lat":28.65808,"routeCount":26},{"id":"958","name":"Jama Masjid","lng":77.238458,"lat":28.650847,"routeCount":28},{"id":"959","name":"Darya Ganj Golcha Cinema","lng":77.240425,"lat":28.644152,"routeCount":21},{"id":"960","name":"Delhi Gate (JLN Marg)","lng":77.238071,"lat":28.639959,"routeCount":27},{"id":"961","name":"LNJP Hospital","lng":77.234817,"lat":28.6401,"routeCount":25},{"id":"962","name":"Zakir Husain College","lng":77.229676,"lat":28.641133,"routeCount":30},{"id":"963","name":"JLN Marg","lng":77.22785,"lat":28.6421,"routeCount":21},{"id":"964","name":"Vivekanand Marg / Minto Road","lng":77.225733,"lat":28.640867,"routeCount":12},{"id":"966","name":"Rani Khera Depot II","lng":77.033633846895,"lat":28.6996513751317,"routeCount":6},{"id":"967","name":"Rani Khera Depot Crossing","lng":77.0278941468983,"lat":28.6977936898634,"routeCount":31},{"id":"968","name":"Rani Khera Village","lng":77.027661,"lat":28.704236,"routeCount":8},{"id":"969","name":"Rani Khera School / Bhagya Vihar","lng":77.027741,"lat":28.709239,"routeCount":7},{"id":"970","name":"Mubarak Pur Crossing","lng":77.027833,"lat":28.712817,"routeCount":5},{"id":"972","name":"Shaheed Bhagat Singh Nagar","lng":77.029167,"lat":28.725017,"routeCount":4},{"id":"973","name":"Karala Crossing","lng":77.03235,"lat":28.731617,"routeCount":19},{"id":"974","name":"Karala Village","lng":77.036983,"lat":28.731583,"routeCount":14},{"id":"975","name":"Karala School","lng":77.039803,"lat":28.730801,"routeCount":15},{"id":"976","name":"Rama Vihar","lng":77.0456,"lat":28.7288,"routeCount":3},{"id":"977","name":"Sukhbeer Nagar","lng":77.04895,"lat":28.727633,"routeCount":3},{"id":"978","name":"Karala Patshala","lng":77.053367,"lat":28.726567,"routeCount":3},{"id":"979","name":"Rajeev Nagar","lng":77.058433,"lat":28.724983,"routeCount":3},{"id":"980","name":"Begum Pur (Kanjhawala Road)","lng":77.065981,"lat":28.721201,"routeCount":3},{"id":"981","name":"Rohini Sec-21","lng":77.069767,"lat":28.7188,"routeCount":24},{"id":"982","name":"Poothkalan","lng":77.07422,"lat":28.71589,"routeCount":17},{"id":"983","name":"Pooth Kalan","lng":77.077075,"lat":28.714336,"routeCount":16},{"id":"984","name":"Brahm Shakti Hospital","lng":77.080713,"lat":28.712372,"routeCount":21},{"id":"985","name":"Buddh Vihar","lng":77.084171,"lat":28.706783,"routeCount":21},{"id":"986","name":"Buddh Vihar","lng":77.084098,"lat":28.706566,"routeCount":19},{"id":"987","name":"Mangol Puri Y Block","lng":77.089612,"lat":28.702762,"routeCount":21},{"id":"988","name":"Mangol Pur Khurd","lng":77.094277,"lat":28.700117,"routeCount":19},{"id":"989","name":"Avantika Xing","lng":77.097225,"lat":28.698384,"routeCount":19},{"id":"990","name":"Mangolpur Kalan Village","lng":77.101095,"lat":28.695671,"routeCount":19},{"id":"991","name":"Mangol Pur School (Outer Ring Road)","lng":77.106315,"lat":28.694414,"routeCount":18},{"id":"992","name":"Rohini Depot III","lng":77.108823,"lat":28.695494,"routeCount":23},{"id":"993","name":"Puspanjali Enclave Rohini Depot 3","lng":77.112857,"lat":28.696609,"routeCount":23},{"id":"994","name":"Kali Mata Mandir","lng":77.115993,"lat":28.697446,"routeCount":22},{"id":"995","name":"Deepali Chowk Ring Road","lng":77.119004,"lat":28.698196,"routeCount":25},{"id":"996","name":"Saraswati Vihar C Block","lng":77.12472,"lat":28.700141,"routeCount":25},{"id":"997","name":"Madhuban Chowk Outer Ring Road","lng":77.128048,"lat":28.701935,"routeCount":25},{"id":"998","name":"RU Block Power House","lng":77.134799,"lat":28.708375,"routeCount":14},{"id":"999","name":"Pitampura RU Block","lng":77.13667,"lat":28.71064,"routeCount":12},{"id":"1000","name":"Uttri Pitam Pura","lng":77.138989,"lat":28.715019,"routeCount":13},{"id":"1001","name":"Pitam Pura BV Block","lng":77.13932,"lat":28.71649,"routeCount":11},{"id":"1002","name":"Haidarpur Water Works","lng":77.140383,"lat":28.72155,"routeCount":17},{"id":"1003","name":"PS Badli","lng":77.14229,"lat":28.72515,"routeCount":13},{"id":"1004","name":"Jail Road Rohini Sec 18","lng":77.143241,"lat":28.727265,"routeCount":7},{"id":"1005","name":"Badli Village","lng":77.140125,"lat":28.731937,"routeCount":8},{"id":"1006","name":"Rohini Sec 18 Block","lng":77.137389,"lat":28.735794,"routeCount":7},{"id":"1007","name":"Rohini Sec 18","lng":77.135808,"lat":28.73884,"routeCount":6},{"id":"1008","name":"Qutub Minar","lng":77.18605,"lat":28.526517,"routeCount":11},{"id":"1009","name":"T B Hospital","lng":77.1897,"lat":28.5283,"routeCount":7},{"id":"1010","name":"DDA Flats Lado Sarai","lng":77.192117,"lat":28.529833,"routeCount":3},{"id":"1011","name":"PTS","lng":77.195504,"lat":28.532964,"routeCount":6},{"id":"1012","name":"MMTC / Adhchini Village","lng":77.196849,"lat":28.535351,"routeCount":8},{"id":"1013","name":"Adhchini Village","lng":77.19807,"lat":28.537823,"routeCount":5},{"id":"1014","name":"Mothers International School","lng":77.1995,"lat":28.541141,"routeCount":5},{"id":"1015","name":"IIT Gate","lng":77.20071,"lat":28.543571,"routeCount":4},{"id":"1016","name":"IIT Gate (Aurobindo Marg)","lng":77.201967,"lat":28.54585,"routeCount":4},{"id":"1017","name":"Padmani Enclave","lng":77.2034,"lat":28.5492,"routeCount":4},{"id":"1018","name":"Hauz Khas","lng":77.2049,"lat":28.553,"routeCount":4},{"id":"1019","name":"Green Park","lng":77.206733,"lat":28.558583,"routeCount":4},{"id":"1020","name":"Yusuf Sarai","lng":77.2074,"lat":28.5626,"routeCount":4},{"id":"1021","name":"Safdurjung Hospital / AIIMS","lng":77.207733,"lat":28.56725,"routeCount":5},{"id":"1022","name":"Kidwai Nagar","lng":77.209735,"lat":28.575667,"routeCount":15},{"id":"1023","name":"SJ Airport","lng":77.212295,"lat":28.584411,"routeCount":11},{"id":"1024","name":"S J Madrasa","lng":77.212721,"lat":28.588591,"routeCount":11},{"id":"1025","name":"Prithvi Raj Road","lng":77.21433,"lat":28.593162,"routeCount":4},{"id":"1026","name":"Prithvi Raj Road Crossing","lng":77.21819,"lat":28.597353,"routeCount":3},{"id":"1027","name":"Claridges Hotel","lng":77.217749,"lat":28.602055,"routeCount":4},{"id":"1028","name":"National Museum","lng":77.218376,"lat":28.611677,"routeCount":5},{"id":"1029","name":"National Archives","lng":77.218542,"lat":28.614678,"routeCount":5},{"id":"1030","name":"Windsor Place","lng":77.218752,"lat":28.617737,"routeCount":5},{"id":"1031","name":"Western Court","lng":77.219113,"lat":28.623775,"routeCount":5},{"id":"1032","name":"Indian Oil Bhawan","lng":77.219448,"lat":28.62853,"routeCount":5},{"id":"1033","name":"Shivaji Park","lng":77.223986,"lat":28.638674,"routeCount":22},{"id":"1034","name":"Vivekanand Marg / Minto Road","lng":77.226006,"lat":28.64145,"routeCount":21},{"id":"1035","name":"PS Kamla Market","lng":77.226021,"lat":28.643042,"routeCount":43},{"id":"1036","name":"Ajmeri Gate / Kamla Market","lng":77.22405,"lat":28.644083,"routeCount":16},{"id":"1038","name":"Punjabi Bagh Terminal","lng":77.135796,"lat":28.667414,"routeCount":14},{"id":"1039","name":"Punjabi Bagh Club","lng":77.131207,"lat":28.663553,"routeCount":11},{"id":"1040","name":"ESI Hospital","lng":77.128719,"lat":28.658396,"routeCount":11},{"id":"1041","name":"Rajdhani College / Raja Garden","lng":77.125441,"lat":28.654765,"routeCount":8},{"id":"1042","name":"Rajouri Garden Market","lng":77.127065,"lat":28.645609,"routeCount":7},{"id":"1043","name":"Mayapuri Chowk (Ring Road)","lng":77.129843,"lat":28.638603,"routeCount":4},{"id":"1044","name":"Naraina Vihar","lng":77.134183,"lat":28.627517,"routeCount":5},{"id":"1045","name":"Naraina Village","lng":77.136612,"lat":28.618591,"routeCount":8},{"id":"1046","name":"COD Ring Road","lng":77.137272,"lat":28.612925,"routeCount":7},{"id":"1047","name":"Barar Square","lng":77.141632,"lat":28.607394,"routeCount":8},{"id":"1048","name":"Garrison Engg.","lng":77.1474333333333,"lat":28.6053666666667,"routeCount":1},{"id":"1049","name":"RR Line","lng":77.155333,"lat":28.60415,"routeCount":7},{"id":"1050","name":"Dhaula Kuan (Ring Road)","lng":77.162493,"lat":28.599544,"routeCount":7},{"id":"1051","name":"Satya Niketan","lng":77.170023,"lat":28.588732,"routeCount":28},{"id":"1052","name":"Gurudwara Moti Bagh","lng":77.1724418,"lat":28.5851033,"routeCount":30},{"id":"1053","name":"South Moti Bagh (Ring Road)","lng":77.174262,"lat":28.581943,"routeCount":30},{"id":"1054","name":"South Moti Bagh","lng":77.173731,"lat":28.577432,"routeCount":13},{"id":"1055","name":"R. K. Puram Sec-12","lng":77.1724,"lat":28.5757,"routeCount":7},{"id":"1056","name":"Sangam Cinema","lng":77.173644,"lat":28.573643,"routeCount":6},{"id":"1057","name":"RK Puram Sec-10","lng":77.17311,"lat":28.570222,"routeCount":9},{"id":"1058","name":"Mohan Singh Market","lng":77.176331,"lat":28.566602,"routeCount":12},{"id":"1059","name":"R K Puram Sec-1 2","lng":77.178246,"lat":28.564697,"routeCount":13},{"id":"1060","name":"RK Puram Sec 1","lng":77.178557,"lat":28.563268,"routeCount":11},{"id":"1061","name":"R K Puram Nab","lng":77.176315,"lat":28.561227,"routeCount":12},{"id":"1062","name":"Munirka Village (T)","lng":77.173811,"lat":28.558583,"routeCount":10},{"id":"1063","name":"Munirka Family Planning","lng":77.174527,"lat":28.556991,"routeCount":13},{"id":"1064","name":"Munirka DDA Flats","lng":77.17666,"lat":28.555501,"routeCount":13},{"id":"1065","name":"ISTM","lng":77.18088,"lat":28.552791,"routeCount":13},{"id":"1066","name":"IIT Hostel","lng":77.185541,"lat":28.550003,"routeCount":5},{"id":"1067","name":"Jia Sarai","lng":77.1891,"lat":28.548571,"routeCount":5},{"id":"1068","name":"IIT Gate","lng":77.196984,"lat":28.545957,"routeCount":5},{"id":"1069","name":"Pushpa Bhawan","lng":77.2313535422157,"lat":28.5281528237937,"routeCount":7},{"id":"1071","name":"DDA Flats Kalka Ji","lng":77.257446,"lat":28.527958,"routeCount":6},{"id":"1072","name":"DDA Market kalka Ji","lng":77.258493,"lat":28.530729,"routeCount":2},{"id":"1073","name":"DDA Flats Kalka Ji","lng":77.258961,"lat":28.531872,"routeCount":4},{"id":"1074","name":"Govindpuri Ext Gali No 16","lng":77.259665,"lat":28.533575,"routeCount":3},{"id":"1075","name":"Rampuri Gali No 13","lng":77.26013,"lat":28.534824,"routeCount":5},{"id":"1076","name":"Govindpuri Gali No 5","lng":77.261185,"lat":28.537641,"routeCount":5},{"id":"1077","name":"Ram Puri / Govind Puri","lng":77.261545,"lat":28.538625,"routeCount":2},{"id":"1078","name":"Govind Puri","lng":77.261894,"lat":28.539533,"routeCount":1},{"id":"1079","name":"Govind Puri Metro Station","lng":77.263917,"lat":28.545117,"routeCount":9},{"id":"1080","name":"Kalkaji Mandir (MaaAnandmayeeMarg)","lng":77.262833,"lat":28.547767,"routeCount":9},{"id":"1081","name":"Kalkaji Mandir","lng":77.263849,"lat":28.551166,"routeCount":10},{"id":"1082","name":"NSIC","lng":77.264157,"lat":28.552086,"routeCount":10},{"id":"1083","name":"Laghu Udyog Sansthan(ModiMill)","lng":77.265167,"lat":28.555533,"routeCount":7},{"id":"1084","name":"SNPD","lng":77.260617,"lat":28.560733,"routeCount":7},{"id":"1085","name":"East of Kailash C-Block","lng":77.258033,"lat":28.561933,"routeCount":7},{"id":"1086","name":"East of Kailash B-Block","lng":77.255567,"lat":28.561917,"routeCount":7},{"id":"1087","name":"Garhi Gaon","lng":77.2512,"lat":28.5621,"routeCount":7},{"id":"1088","name":"Lajpat Nagar Crossing","lng":77.2501,"lat":28.5643,"routeCount":7},{"id":"1089","name":"PG DAV College / Sri Niwaspuri","lng":77.252931,"lat":28.567384,"routeCount":10},{"id":"1090","name":"Nehru Nagar","lng":77.253865,"lat":28.569103,"routeCount":17},{"id":"1091","name":"Ashram (Hari Nagar)","lng":77.257533,"lat":28.573367,"routeCount":3},{"id":"1092","name":"Golf Club / Sunder Nagar","lng":77.23788,"lat":28.601413,"routeCount":11},{"id":"1093","name":"Kaka Nagar","lng":77.2371,"lat":28.60575,"routeCount":9},{"id":"1094","name":"Pandwala Crossing","lng":76.974025,"lat":28.558043,"routeCount":9},{"id":"1095","name":"Osho Dhyan Mandir Jhatikra Road","lng":76.973148,"lat":28.553981,"routeCount":4},{"id":"1096","name":"Daulat Pur Crossing","lng":76.970745,"lat":28.543431,"routeCount":4},{"id":"1097","name":"Jhatikra Village","lng":76.966004,"lat":28.522,"routeCount":4},{"id":"1098","name":"Hari Nagar Depot","lng":77.1017,"lat":28.6239,"routeCount":10},{"id":"1099","name":"DA Block Hari Nagar","lng":77.106867,"lat":28.6251,"routeCount":10},{"id":"1100","name":"Hari Nagar Shaheed Pawan Sahni Chowk","lng":77.1108,"lat":28.6252,"routeCount":14},{"id":"1101","name":"DDU Hospital","lng":77.1107,"lat":28.628,"routeCount":10},{"id":"1102","name":"Beriwala Bagh","lng":77.111967,"lat":28.63145,"routeCount":10},{"id":"1103","name":"Swarg Ashram","lng":77.1149,"lat":28.631,"routeCount":10},{"id":"1104","name":"LIG Flats","lng":77.1196,"lat":28.6309,"routeCount":10},{"id":"1105","name":"Hari Nagar (Mohan Mandir) Mayapuri","lng":77.124267,"lat":28.630683,"routeCount":20},{"id":"1107","name":"Pandav Nagar","lng":77.15335,"lat":28.650133,"routeCount":10},{"id":"1108","name":"Telephone Exchange Karol Bagh","lng":77.182029,"lat":28.643211,"routeCount":6},{"id":"1109","name":"Panchkuian Road Banwari Lal Hospital","lng":77.204717,"lat":28.64165,"routeCount":22},{"id":"1110","name":"Balmiki Mandir Marg","lng":77.204483,"lat":28.639967,"routeCount":12},{"id":"1111","name":"PS Mandir Marg","lng":77.2029278,"lat":28.6374316,"routeCount":12},{"id":"1112","name":"Indraprastha Depot","lng":77.248532,"lat":28.620212,"routeCount":16},{"id":"1113","name":"IP Power House (ITO Ring Road)","lng":77.247083,"lat":28.624567,"routeCount":17},{"id":"1114","name":"Delhi Secretariat","lng":77.2514,"lat":28.6283,"routeCount":36},{"id":"1115","name":"Rainy Well","lng":77.26065,"lat":28.628317,"routeCount":36},{"id":"1116","name":"Laxmi Nagar / Shakarpur Crossing","lng":77.277067,"lat":28.6297,"routeCount":21},{"id":"1117","name":"Shakarpur School Block","lng":77.279283,"lat":28.627433,"routeCount":20},{"id":"1118","name":"Ganesh Nagar","lng":77.285233,"lat":28.621017,"routeCount":20},{"id":"1119","name":"Mother Dairy","lng":77.286333,"lat":28.6191,"routeCount":15},{"id":"1120","name":"Patparganj","lng":77.2881001,"lat":28.6164001,"routeCount":7},{"id":"1121","name":"P S Pandav Nagar","lng":77.2903,"lat":28.6147,"routeCount":7},{"id":"1122","name":"Shashi Garden Xing","lng":77.2941,"lat":28.6136,"routeCount":7},{"id":"1123","name":"Pocket-5 Mayur Vihar Ph-1","lng":77.2956,"lat":28.6133,"routeCount":7},{"id":"1124","name":"ITI Khichiripur","lng":77.2977,"lat":28.613,"routeCount":7},{"id":"1125","name":"Kotla Village","lng":77.302,"lat":28.6132,"routeCount":7},{"id":"1126","name":"Trilokpuri 13 Block","lng":77.306183,"lat":28.612817,"routeCount":8},{"id":"1127","name":"Chand Cinema","lng":77.3125,"lat":28.612983,"routeCount":6},{"id":"1128","name":"Super Bazar","lng":77.316317,"lat":28.613567,"routeCount":6},{"id":"1129","name":"Kalyan Puri Crossing (Chand Cinema Road)","lng":77.318894,"lat":28.614764,"routeCount":6},{"id":"1130","name":"Kondali Old","lng":77.322989,"lat":28.613051,"routeCount":2},{"id":"1131","name":"Dallu Pura","lng":77.32005,"lat":28.60875,"routeCount":2},{"id":"1133","name":"Mayur Vihar Phase 3 Crossing","lng":77.32735,"lat":28.6018,"routeCount":5},{"id":"1134","name":"New Kondali A1 Crossing","lng":77.329133,"lat":28.602967,"routeCount":5},{"id":"1135","name":"Bharti Public School","lng":77.333967,"lat":28.606133,"routeCount":5},{"id":"1136","name":"Mayur Vihar Phase III A1 Block","lng":77.33715,"lat":28.608717,"routeCount":5},{"id":"1137","name":"CRPF Camp","lng":77.339833,"lat":28.611833,"routeCount":5},{"id":"1138","name":"Mayur Vihar Phase III (T) Paper Market","lng":77.3358489865978,"lat":28.6182677175226,"routeCount":6},{"id":"1139","name":"Bawana Sec 5 Cluster Depot","lng":77.07600851,"lat":28.8102799,"routeCount":15},{"id":"1140","name":"Holambi Crossing","lng":77.084369,"lat":28.800838,"routeCount":4},{"id":"1141","name":"Pragati Power Station Bawana","lng":77.073733,"lat":28.794236,"routeCount":4},{"id":"1142","name":"Rajeev Ratan Aawas Bawana","lng":77.063506,"lat":28.784427,"routeCount":4},{"id":"1143","name":"Ganga Toli Mandir Bawana","lng":77.05903,"lat":28.7866,"routeCount":5},{"id":"1144","name":"Sec 1 / 2 Bawana Indst Area","lng":77.05225,"lat":28.79043,"routeCount":5},{"id":"1145","name":"DSIDC Bawana Sec 2","lng":77.042627,"lat":28.803302,"routeCount":26},{"id":"1146","name":"Bawana Soap Factory","lng":77.03929,"lat":28.8018412,"routeCount":17},{"id":"1147","name":"Bawana Dispensary","lng":77.03738,"lat":28.80095,"routeCount":29},{"id":"1148","name":"Bawana Village Chowk","lng":77.03552,"lat":28.799973,"routeCount":23},{"id":"1149","name":"Primary School","lng":77.034438,"lat":28.797678,"routeCount":16},{"id":"1150","name":"Panchayat Ghar","lng":77.031678,"lat":28.7977933,"routeCount":16},{"id":"1151","name":"Ishwar Colony","lng":77.030053,"lat":28.794782,"routeCount":16},{"id":"1152","name":"Krishna Vihar","lng":77.025648,"lat":28.787407,"routeCount":14},{"id":"1153","name":"Bajit Pur Crossing","lng":77.024146,"lat":28.7849829,"routeCount":16},{"id":"1154","name":"Shri Krishna Gaushala","lng":77.021882,"lat":28.779365,"routeCount":16},{"id":"1155","name":"Prem Piyau","lng":77.0165946162251,"lat":28.7659719123008,"routeCount":14},{"id":"1156","name":"Chandpur Khurd","lng":77.015964,"lat":28.760231,"routeCount":14},{"id":"1157","name":"Chandpur Kalan Crossing","lng":77.014504,"lat":28.751341,"routeCount":16},{"id":"1158","name":"SDM Court Kanjhawala","lng":77.00954,"lat":28.740427,"routeCount":17},{"id":"1159","name":"Kanjhawala Chowk","lng":77.00814,"lat":28.73747,"routeCount":14},{"id":"1160","name":"Shivam Plywood","lng":77.01226,"lat":28.73544,"routeCount":14},{"id":"1161","name":"Radha Swami Satsang / Rupali Enclave","lng":77.020936,"lat":28.733977,"routeCount":17},{"id":"1162","name":"Shiv vihar/Bheem chowk","lng":77.02515,"lat":28.73345,"routeCount":15},{"id":"1164","name":"Sultanpuri Terminal","lng":77.0750093121837,"lat":28.7034485401508,"routeCount":14},{"id":"1165","name":"Najafgarh Delhi Gate","lng":76.985665896004,"lat":28.6117352637536,"routeCount":16},