{"busStops":[{"id":"2","name":"Niranjanpur","lng":75.90103,"lat":22.76904,"routeCount":4},{"id":"5","name":"Scheme No. 78","lng":75.90007,"lat":22.76606,"routeCount":10},{"id":"6","name":"Shalimar Township BRT","lng":75.89894,"lat":22.76226,"routeCount":4},{"id":"8","name":"Satya Sai","lng":75.89654,"lat":22.75448,"routeCount":4},{"id":"10","name":"Vijay Nagar BRT","lng":75.89505,"lat":22.74951,"routeCount":4},{"id":"12","name":"M. R. 9  Square","lng":75.89316,"lat":22.74333,"routeCount":4},{"id":"14","name":"Press Complex","lng":75.89131,"lat":22.73744,"routeCount":4},{"id":"15","name":"L.I.G. Square","lng":75.89037,"lat":22.73446,"routeCount":4},{"id":"17","name":"Industry House","lng":75.88864,"lat":22.72904,"routeCount":4},{"id":"18","name":"Industry House Cross Road","lng":75.88795,"lat":22.72748,"routeCount":2},{"id":"20","name":"Palasiya","lng":75.8871,"lat":22.72471,"routeCount":4},{"id":"21","name":"Palasiya Chouraha","lng":75.88665,"lat":22.72373,"routeCount":6},{"id":"22","name":"Gita Bhawan","lng":75.88447,"lat":22.71902,"routeCount":4},{"id":"23","name":"Geeta Bhawan Cross Road","lng":75.88424,"lat":22.71834,"routeCount":2},{"id":"24","name":"AiCTSL","lng":75.88368,"lat":22.71451,"routeCount":4},{"id":"25","name":"Shivaji Circle","lng":75.88296,"lat":22.71143,"routeCount":2},{"id":"26","name":"Shivaji Vatika BRT","lng":75.88203,"lat":22.71109,"routeCount":4},{"id":"28","name":"GPO BRT","lng":75.87887,"lat":22.70662,"routeCount":4},{"id":"30","name":"Indira Pratima","lng":75.87655,"lat":22.70357,"routeCount":6},{"id":"32","name":"Navlakha Square BRT","lng":75.87753,"lat":22.69815,"routeCount":4},{"id":"33","name":"Holkar Subway BRT","lng":75.87222,"lat":22.69513,"routeCount":4},{"id":"35","name":"Tantya Bheel Chouraha (Bhawarkua) BRT","lng":75.86684,"lat":22.69204,"routeCount":4},{"id":"36","name":"Vishnupuri","lng":75.86409,"lat":22.68949,"routeCount":4},{"id":"37","name":"Mata Gujri","lng":75.86125,"lat":22.68665,"routeCount":4},{"id":"38","name":"Rajiv Gandhi","lng":75.8582,"lat":22.68392,"routeCount":8},{"id":"39","name":"Rajiv Gandhi Circle","lng":75.85727,"lat":22.68264,"routeCount":3},{"id":"1127","name":"Shikshak Nagar","lng":75.82648,"lat":22.72429,"routeCount":10},{"id":"1832","name":"Chandan Nagar","lng":75.82426,"lat":22.70725,"routeCount":2},{"id":"3758","name":"Chhota Bangarda","lng":75.81374,"lat":22.74651,"routeCount":3},{"id":"3759","name":"Surajbali Nagar","lng":75.82355,"lat":22.73997,"routeCount":2},{"id":"3760","name":"Yadav Dharmshala","lng":75.82552,"lat":22.7386,"routeCount":2},{"id":"3761","name":"Regional Park Gate","lng":75.85555,"lat":22.67736,"routeCount":2},{"id":"3763","name":"Maa Vihar1","lng":75.84998,"lat":22.67794,"routeCount":4},{"id":"3764","name":"Gadbadi Pulia2","lng":75.84674,"lat":22.6754,"routeCount":4},{"id":"3766","name":"Rau Bypass","lng":75.80739,"lat":22.63015,"routeCount":4},{"id":"3768","name":"Arjun Nagar","lng":75.84129,"lat":22.67382,"routeCount":4},{"id":"3769","name":"Mama ji Dhaba","lng":75.80839,"lat":22.6319,"routeCount":4},{"id":"3770","name":"Bijalpur","lng":75.83487,"lat":22.67169,"routeCount":10},{"id":"3772","name":"Gareeb Nawaj Colony","lng":75.82684,"lat":22.73756,"routeCount":2},{"id":"3773","name":"Rau Bus Stand","lng":75.8106,"lat":22.63663,"routeCount":4},{"id":"3774","name":"Rajendra Nagar","lng":75.83235,"lat":22.67021,"routeCount":10},{"id":"3777","name":"Isha Avenue Gate","lng":75.82843,"lat":22.73633,"routeCount":2},{"id":"3778","name":"Durga Nagar","lng":75.82676,"lat":22.66531,"routeCount":4},{"id":"3779","name":"Rau Petrol Pump","lng":75.81401,"lat":22.63865,"routeCount":2},{"id":"3780","name":"Shramik Colony/Jivan Jyoti","lng":75.8175,"lat":22.64311,"routeCount":4},{"id":"3781","name":"Shrinath Colony","lng":75.83015,"lat":22.73512,"routeCount":4},{"id":"3782","name":"Reti Mandi2","lng":75.82524,"lat":22.66232,"routeCount":4},{"id":"3783","name":"Silicon City","lng":75.8276,"lat":22.64597,"routeCount":4},{"id":"3785","name":"IPS","lng":75.82297,"lat":22.65582,"routeCount":8},{"id":"3786","name":"Sangam Nagar Road","lng":75.83147,"lat":22.73428,"routeCount":2},{"id":"3788","name":"Gamla Pulia","lng":75.82423,"lat":22.65906,"routeCount":6},{"id":"3789","name":"Hammal Colony","lng":75.83338,"lat":22.73287,"routeCount":2},{"id":"3790","name":"Laxmibai Mandi","lng":75.8374,"lat":22.72989,"routeCount":3},{"id":"3791","name":"Indore Wire Factory","lng":75.84163,"lat":22.72694,"routeCount":6},{"id":"3793","name":"Jinsi Square","lng":75.84609,"lat":22.72288,"routeCount":10},{"id":"3794","name":"Kandilpura","lng":75.8433,"lat":22.72283,"routeCount":8},{"id":"3796","name":"Hardia Hospital","lng":75.80548,"lat":22.62713,"routeCount":2},{"id":"3800","name":"Medicaps","lng":75.801,"lat":22.62063,"routeCount":2},{"id":"3801","name":"Badaganpati","lng":75.84171,"lat":22.72056,"routeCount":23},{"id":"3803","name":"Antim Square","lng":75.84085,"lat":22.71747,"routeCount":8},{"id":"3805","name":"Rajmohalla","lng":75.84062,"lat":22.71519,"routeCount":27},{"id":"3808","name":"Gangwal Bus Stand","lng":75.84063,"lat":22.71313,"routeCount":22},{"id":"3814","name":"Lal Baug_2","lng":75.84727,"lat":22.70536,"routeCount":9},{"id":"3816","name":"G.D.C College","lng":75.85,"lat":22.70685,"routeCount":27},{"id":"3818","name":"Collectorate","lng":75.85452,"lat":22.70837,"routeCount":30},{"id":"3820","name":"Palsikar","lng":75.85579,"lat":22.70692,"routeCount":10},{"id":"3822","name":"Prem Nagar","lng":75.85541,"lat":22.70389,"routeCount":6},{"id":"3824","name":"Manik Baug","lng":75.85478,"lat":22.69758,"routeCount":4},{"id":"3826","name":"Saifi Nagar","lng":75.85495,"lat":22.69519,"routeCount":8},{"id":"3827","name":"Choithram Hospital","lng":75.85532,"lat":22.68828,"routeCount":8},{"id":"3828","name":"Choithram Mandi","lng":75.85544,"lat":22.68339,"routeCount":6},{"id":"3829","name":"Kila Maidan/Laxmi Bai Pratima","lng":75.84571,"lat":22.72607,"routeCount":8},{"id":"3833","name":"Lal Baug_1","lng":75.84605,"lat":22.70538,"routeCount":16},{"id":"3844","name":"Patel Bridge","lng":75.87056,"lat":22.71506,"routeCount":2},{"id":"3846","name":"Abhinandan Pump","lng":75.79824,"lat":22.69995,"routeCount":6},{"id":"3848","name":"Agrawal Tol Kanta","lng":75.90475,"lat":22.78167,"routeCount":2},{"id":"3849","name":"Ahilya Ashram","lng":75.86032,"lat":22.73401,"routeCount":7},{"id":"3850","name":"Airport","lng":75.81067,"lat":22.72978,"routeCount":13},{"id":"3851","name":"Airport Thana Stop","lng":75.81635,"lat":22.72668,"routeCount":2},{"id":"3852","name":"Allahabad Bank/ Krishnapuri Colony","lng":75.89608,"lat":22.6901,"routeCount":7},{"id":"3856","name":"Anand Nagar","lng":75.89452,"lat":22.72809,"routeCount":2},{"id":"3858","name":"Annapurna Mandir","lng":75.83725,"lat":22.68935,"routeCount":8},{"id":"3859","name":"Annapurna Nagar","lng":75.83683,"lat":22.68774,"routeCount":8},{"id":"3862","name":"Antim Chauraha","lng":75.84091,"lat":22.71787,"routeCount":12},{"id":"3863","name":"Arvindo","lng":75.8473,"lat":22.79788,"routeCount":14},{"id":"3864","name":"Astha Anup/Anup Talkies","lng":75.88437,"lat":22.74385,"routeCount":6},{"id":"3865","name":"Azad Nagar","lng":75.88506,"lat":22.70066,"routeCount":4},{"id":"3867","name":"B.C.M. Paradise","lng":75.92148,"lat":22.75223,"routeCount":6},{"id":"3868","name":"Badwani Plaza","lng":75.88849,"lat":22.72332,"routeCount":6},{"id":"3870","name":"Bakery Gali","lng":75.87761,"lat":22.73647,"routeCount":8},{"id":"3871","name":"Zoo","lng":75.87799,"lat":22.70483,"routeCount":8},{"id":"3872","name":"Bangali Colony","lng":75.90843,"lat":22.7193,"routeCount":5},{"id":"3874","name":"Vikas Pradhikaran","lng":75.83805,"lat":22.74591,"routeCount":3},{"id":"3875","name":"Vidhyanjali School","lng":75.79378,"lat":22.69804,"routeCount":6},{"id":"3876","name":"Vidhyadham","lng":75.82043,"lat":22.72574,"routeCount":10},{"id":"3877","name":"Velocity Talkies","lng":75.90292,"lat":22.74521,"routeCount":5},{"id":"3878","name":"Veena nagar","lng":75.8702,"lat":22.75897,"routeCount":6},{"id":"3879","name":"Bank Colony","lng":75.8387,"lat":22.69451,"routeCount":6},{"id":"3880","name":"Bapat","lng":75.87815,"lat":22.75561,"routeCount":15},{"id":"3881","name":"Vaishali Nagar","lng":75.8296,"lat":22.68372,"routeCount":6},{"id":"3882","name":"Bhagirathpura Pul","lng":75.86611,"lat":22.74653,"routeCount":2},{"id":"3883","name":"Bhagirathpura","lng":75.86117,"lat":22.74579,"routeCount":2},{"id":"3884","name":"Usha Nagar","lng":75.83935,"lat":22.69679,"routeCount":12},{"id":"3885","name":"Vaibhav Nagar","lng":75.91554,"lat":22.72173,"routeCount":4},{"id":"3886","name":"Tulsi Nagar","lng":75.91879,"lat":22.75285,"routeCount":6},{"id":"3888","name":"Triveni Chouraha","lng":75.84104,"lat":22.74223,"routeCount":2},{"id":"3889","name":"Tower Chouraha_2","lng":75.8646,"lat":22.6982,"routeCount":6},{"id":"3890","name":"Tower Chouraha_1","lng":75.86488,"lat":22.69772,"routeCount":5},{"id":"3891","name":"Tirupati Nagar","lng":75.82969,"lat":22.72351,"routeCount":8},{"id":"3893","name":"Bhagwati Dwar","lng":75.8239,"lat":22.68545,"routeCount":2},{"id":"3894","name":"Timber Market","lng":75.83457,"lat":22.71139,"routeCount":6},{"id":"3896","name":"Tilak Nagar","lng":75.89869,"lat":22.72112,"routeCount":4},{"id":"3897","name":"Bhamori","lng":75.88795,"lat":22.74662,"routeCount":6},{"id":"3898","name":"Tigriya Badshah Kakad","lng":75.83071,"lat":22.75605,"routeCount":2},{"id":"3899","name":"Tejaji Nagar","lng":75.88834,"lat":22.63999,"routeCount":10},{"id":"3900","name":"Teenpuliya ","lng":75.87409,"lat":22.74381,"routeCount":4},{"id":"3901","name":"Dhanvantri Nagar","lng":75.83024,"lat":22.67199,"routeCount":2},{"id":"3903","name":"Teen Imli","lng":75.88449,"lat":22.68889,"routeCount":27},{"id":"3905","name":"T.I.","lng":75.87766,"lat":22.72158,"routeCount":6},{"id":"3906","name":"Dravid Nagar","lng":75.83794,"lat":22.70127,"routeCount":2},{"id":"3907","name":"Essar Pump/ Pawanpuri Colony","lng":75.88923,"lat":22.68982,"routeCount":6},{"id":"3908","name":"DRP Line","lng":75.8629,"lat":22.7278,"routeCount":8},{"id":"3911","name":"Sanchar Nagar","lng":75.91727,"lat":22.72248,"routeCount":4},{"id":"3912","name":"Royal Bungalow","lng":75.92565,"lat":22.76231,"routeCount":4},{"id":"3913","name":"Electronic Complex","lng":75.86936,"lat":22.75065,"routeCount":8},{"id":"3914","name":"Royal Bungalow (Sukhliya)","lng":75.87349,"lat":22.76251,"routeCount":6},{"id":"3915","name":"Regal Square","lng":75.87128,"lat":22.7201,"routeCount":19},{"id":"3916","name":"Excellent School","lng":75.83723,"lat":22.73584,"routeCount":2},{"id":"3917","name":"Footi Kothi","lng":75.82756,"lat":22.69364,"routeCount":9},{"id":"3919","name":"G.D.C","lng":75.84611,"lat":22.72872,"routeCount":2},{"id":"3922","name":"G.S.I.T.S.","lng":75.87421,"lat":22.72519,"routeCount":4},{"id":"3923","name":"Gandhi Hall/Palika Plaza_2","lng":75.86575,"lat":22.71901,"routeCount":11},{"id":"3925","name":"Gandhi Hall/Palika Plaza_1","lng":75.86529,"lat":22.71976,"routeCount":15},{"id":"3926","name":"Gandhi Nagar","lng":75.79089,"lat":22.73908,"routeCount":15},{"id":"3927","name":"Relax Garden","lng":75.82558,"lat":22.68945,"routeCount":2},{"id":"3929","name":"Regional Park (A.B. Road)","lng":75.8552,"lat":22.68243,"routeCount":4},{"id":"3931","name":"Ganesh Bagh","lng":75.83943,"lat":22.74406,"routeCount":2},{"id":"3932","name":"Rasoma","lng":75.89406,"lat":22.74865,"routeCount":3},{"id":"3933","name":"Ranjit Hanuman","lng":75.83583,"lat":22.69967,"routeCount":8},{"id":"3934","name":"Ranjeet Singh College","lng":75.87691,"lat":22.6792,"routeCount":10},{"id":"3936","name":"Rani Sati Gate","lng":75.87449,"lat":22.72858,"routeCount":4},{"id":"3937","name":"Samar park","lng":75.92182,"lat":22.7632,"routeCount":4},{"id":"3938","name":"Ramchandra Pump / APTC","lng":75.8346,"lat":22.72214,"routeCount":13},{"id":"3939","name":"Sangam Nagar","lng":75.83765,"lat":22.74049,"routeCount":2},{"id":"3941","name":"Rambali Nagar","lng":75.84081,"lat":22.73435,"routeCount":3},{"id":"3942","name":"Rambali Chouraha","lng":75.84443,"lat":22.73756,"routeCount":2},{"id":"3943","name":"Rambagh","lng":75.85797,"lat":22.72299,"routeCount":8},{"id":"3945","name":"Rajwada","lng":75.85562,"lat":22.71842,"routeCount":36},{"id":"3948","name":"Rajkumar Mill1/ Rajkumar Bridge ","lng":75.86464,"lat":22.72733,"routeCount":8},{"id":"3949","name":"Rajendra Nagar Square","lng":75.8286,"lat":22.67008,"routeCount":4},{"id":"3950","name":"Railway Station","lng":75.86885,"lat":22.71768,"routeCount":30},{"id":"3951","name":"R.T.O","lng":75.84477,"lat":22.69989,"routeCount":2},{"id":"3952","name":"Sun City","lng":75.91547,"lat":22.75301,"routeCount":4},{"id":"3953","name":"Sukhliya","lng":75.87496,"lat":22.76108,"routeCount":12},{"id":"3956","name":"Subhash Nagar_2","lng":75.87088,"lat":22.74332,"routeCount":8},{"id":"3957","name":"Subhash Nagar_1","lng":75.8704,"lat":22.74302,"routeCount":2},{"id":"3958","name":"Smrati Talkies","lng":75.85266,"lat":22.72244,"routeCount":6},{"id":"3960","name":"Silicon City Gate","lng":75.82024,"lat":22.64862,"routeCount":4},{"id":"3961","name":"Sirpur","lng":75.82118,"lat":22.70642,"routeCount":6},{"id":"3962","name":"Sindhi Colony","lng":75.86308,"lat":22.70085,"routeCount":11},{"id":"3964","name":"Shivshakti Nagar","lng":75.91076,"lat":22.71965,"routeCount":4},{"id":"3965","name":"Shivaji Vatika City Bus","lng":75.88315,"lat":22.71079,"routeCount":2},{"id":"3966","name":"Shiv City Gate","lng":75.829,"lat":22.65174,"routeCount":2},{"id":"3967","name":"Shiv City square","lng":75.83103,"lat":22.65104,"routeCount":2},{"id":"3968","name":"Shanti Nagar","lng":75.90504,"lat":22.69762,"routeCount":9},{"id":"3969","name":"Shalimar Township City Bus","lng":75.89917,"lat":22.76306,"routeCount":6},{"id":"3971","name":"Sch. No. 51","lng":75.84261,"lat":22.73997,"routeCount":3},{"id":"3972","name":"Sayaji","lng":75.89107,"lat":22.75202,"routeCount":18},{"id":"3973","name":"Satya Sai City Bus","lng":75.89702,"lat":22.75532,"routeCount":14},{"id":"3975","name":"Sanmati Hospital","lng":75.83437,"lat":22.73801,"routeCount":2},{"id":"3976","name":"Sanjay Setu_1","lng":75.85933,"lat":22.71866,"routeCount":13},{"id":"3978","name":"Sanghi Motors","lng":75.90684,"lat":22.78859,"routeCount":4},{"id":"3979","name":"Bhandari Mill","lng":75.86328,"lat":22.72985,"routeCount":8},{"id":"3980","name":"Tantya Bheel Chouraha (Bhawarkua)","lng":75.86781,"lat":22.69268,"routeCount":23},{"id":"3982","name":"Bholaram/Deendayal Upadhyay Garden","lng":75.8626,"lat":22.68805,"routeCount":4},{"id":"3983","name":"Bijasan / Bijasan Central School","lng":75.80021,"lat":22.73272,"routeCount":7},{"id":"3984","name":"Bombay Hospital","lng":75.90408,"lat":22.75361,"routeCount":11},{"id":"3985","name":"Chanakyapuri Square","lng":75.83581,"lat":22.68423,"routeCount":7},{"id":"3986","name":"Chandralok","lng":75.89729,"lat":22.72962,"routeCount":2},{"id":"3987","name":"ChimanBagh","lng":75.86206,"lat":22.724,"routeCount":12},{"id":"3988","name":"Chitawad_1","lng":75.88179,"lat":22.68598,"routeCount":11},{"id":"3989","name":"Choithram Mandi Gate","lng":75.85246,"lat":22.68188,"routeCount":3},{"id":"3990","name":"Christian Eminent","lng":75.88671,"lat":22.73594,"routeCount":2},{"id":"3991","name":"City Bus Depot","lng":75.90207,"lat":22.73763,"routeCount":3},{"id":"3995","name":"Diamond Colony","lng":75.92302,"lat":22.72561,"routeCount":4},{"id":"3996","name":"Damru Ustad Chouraha","lng":75.8687,"lat":22.74606,"routeCount":2},{"id":"3997","name":"Dashrath Bagh","lng":75.83614,"lat":22.74835,"routeCount":2},{"id":"3998","name":"Dutt Mandir","lng":75.8256,"lat":22.66706,"routeCount":4},{"id":"3999","name":"D A V V","lng":75.87031,"lat":22.68915,"routeCount":16},{"id":"4000","name":"Dawa Bazar","lng":75.87587,"lat":22.71371,"routeCount":19},{"id":"4001","name":"Dewas Naka","lng":75.90188,"lat":22.77189,"routeCount":7},{"id":"4003","name":"GPO City Bus","lng":75.87884,"lat":22.70746,"routeCount":14},{"id":"4006","name":"Gayatri Mandir","lng":75.89301,"lat":22.72321,"routeCount":6},{"id":"4008","name":"Girdhar Mahal","lng":75.89009,"lat":22.74929,"routeCount":4},{"id":"4009","name":"Gopur Square","lng":75.82914,"lat":22.68422,"routeCount":1},{"id":"4010","name":"GOMATGIRI CHOURAHA","lng":75.77641,"lat":22.74245,"routeCount":8},{"id":"4011","name":"Gouri Nagar","lng":75.86985,"lat":22.75462,"routeCount":8},{"id":"4012","name":"Gumasta Nagar/Arihant Hospital","lng":75.83247,"lat":22.69719,"routeCount":8},{"id":"4013","name":"Gurudwara","lng":75.85539,"lat":22.71626,"routeCount":25},{"id":"4014","name":"Hanuman Mandir","lng":75.90582,"lat":22.71151,"routeCount":4},{"id":"4015","name":"Shri Pandharinath Mandir_2","lng":75.85589,"lat":22.71342,"routeCount":6},{"id":"4016","name":"Hawa Bangla","lng":75.82227,"lat":22.68355,"routeCount":8},{"id":"4017","name":"City Centre / High Court_1","lng":75.874,"lat":22.72077,"routeCount":14},{"id":"4019","name":"Hiranagar","lng":75.87609,"lat":22.7589,"routeCount":4},{"id":"4020","name":"Holkar City Bus","lng":75.8705,"lat":22.69419,"routeCount":6},{"id":"4022","name":"IET/SOPA","lng":75.87598,"lat":22.6809,"routeCount":10},{"id":"4024","name":"Imli Bazar","lng":75.85393,"lat":22.72286,"routeCount":10},{"id":"4025","name":"Indraprastha Tower","lng":75.88235,"lat":22.72278,"routeCount":10},{"id":"4028","name":"Jabran Colony/Juni Indore","lng":75.85902,"lat":22.7077,"routeCount":11},{"id":"4031","name":"Zam Zam Chouraha","lng":75.91324,"lat":22.73184,"routeCount":2},{"id":"4032","name":"Janjir Wala","lng":75.88103,"lat":22.72655,"routeCount":4},{"id":"4033","name":"Jawahar Tekri","lng":75.78635,"lat":22.69676,"routeCount":6},{"id":"4034","name":"Jila Hospital","lng":75.83054,"lat":22.70956,"routeCount":6},{"id":"4036","name":"Kankad","lng":75.85702,"lat":22.7795,"routeCount":8},{"id":"4037","name":"Kalani Nagar","lng":75.82447,"lat":22.7248,"routeCount":13},{"id":"4039","name":"Kali Puliya","lng":75.89078,"lat":22.69788,"routeCount":2},{"id":"4042","name":"Kasturba Gram","lng":75.88745,"lat":22.64545,"routeCount":10},{"id":"4043","name":"Kesharbagh Bridge","lng":75.84427,"lat":22.68246,"routeCount":3},{"id":"4044","name":"Khada Ganpati","lng":75.84698,"lat":22.73699,"routeCount":2},{"id":"4045","name":"Khajrana Dargah","lng":75.91452,"lat":22.73639,"routeCount":2},{"id":"4046","name":"Khajrana Ganesh Mandir","lng":75.90775,"lat":22.73085,"routeCount":6},{"id":"4047","name":"Khajrana Ring Road 1","lng":75.90276,"lat":22.7308,"routeCount":2},{"id":"4049","name":"Khajrana Ring Road","lng":75.90206,"lat":22.73217,"routeCount":9},{"id":"4050","name":"Khajrana Ring Road 5","lng":75.90239,"lat":22.73165,"routeCount":2},{"id":"4054","name":"Shree Krishna Talkies/ Krishnapura Pul_1","lng":75.85927,"lat":22.71993,"routeCount":7},{"id":"4056","name":"Lasudiya","lng":75.90584,"lat":22.78526,"routeCount":4},{"id":"4057","name":"Laxmi Pump","lng":75.90269,"lat":22.77471,"routeCount":4},{"id":"4058","name":"Lanturn Chouraha","lng":75.87419,"lat":22.72451,"routeCount":6},{"id":"4060","name":"LIG","lng":75.88969,"lat":22.73396,"routeCount":4},{"id":"4061","name":"Limbodi/Ashram","lng":75.8819,"lat":22.66851,"routeCount":10},{"id":"4062","name":"Lokhande Bridge","lng":75.85966,"lat":22.72849,"routeCount":5},{"id":"4063","name":"Luv Kush / MR 10 SQ","lng":75.84743,"lat":22.78996,"routeCount":12},{"id":"4064","name":"Nehru Stadium/MY Hospital Bus Std","lng":75.88066,"lat":22.71139,"routeCount":14},{"id":"4065","name":"M.O.G Line","lng":75.84163,"lat":22.70871,"routeCount":11},{"id":"4066","name":"MR 10/ Chandragupt mourya square","lng":75.87101,"lat":22.76408,"routeCount":15},{"id":"4067","name":"M.T.H._2","lng":75.86425,"lat":22.71883,"routeCount":1},{"id":"4068","name":"M.Y. Hospital Gate","lng":75.87857,"lat":22.71296,"routeCount":14},{"id":"4070","name":"Machli Farm","lng":75.88516,"lat":22.6569,"routeCount":10},{"id":"4071","name":"Madhu Milan","lng":75.87477,"lat":22.71397,"routeCount":27},{"id":"4073","name":"Mahalakshmi Nagar","lng":75.90734,"lat":22.75374,"routeCount":6},{"id":"4074","name":"Mahesh Guard Line/Police Line Pump","lng":75.84669,"lat":22.73266,"routeCount":9},{"id":"4075","name":"Malganj","lng":75.84527,"lat":22.71535,"routeCount":15},{"id":"4076","name":"Malviya Nagar","lng":75.90245,"lat":22.74121,"routeCount":9},{"id":"4078","name":"Malwa Mill","lng":75.875,"lat":22.7342,"routeCount":11},{"id":"4081","name":"Manavata ByPass","lng":75.93204,"lat":22.72771,"routeCount":4},{"id":"4082","name":"Manavata Nagar","lng":75.92779,"lat":22.72688,"routeCount":4},{"id":"4083","name":"Marimata Chouraha","lng":75.84969,"lat":22.73386,"routeCount":13},{"id":"4084","name":"Mayur Hospital","lng":75.90547,"lat":22.72465,"routeCount":4},{"id":"4085","name":"Meghdoot","lng":75.88781,"lat":22.75277,"routeCount":14},{"id":"4086","name":"Mhow Naka","lng":75.84298,"lat":22.70497,"routeCount":6},{"id":"4088","name":"MIG Thana","lng":75.88483,"lat":22.73718,"routeCount":4},{"id":"4089","name":"Musakhedi","lng":75.89966,"lat":22.69285,"routeCount":16},{"id":"4092","name":"Nagar Nigam Depot_1","lng":75.85922,"lat":22.72374,"routeCount":22},{"id":"4093","name":"Naka Bhatta","lng":75.86815,"lat":22.74134,"routeCount":8},{"id":"4094","name":"Nanda Nagar","lng":75.87692,"lat":22.74213,"routeCount":4},{"id":"4095","name":"Nandbagh","lng":75.83457,"lat":22.74997,"routeCount":2},{"id":"4096","name":"Navlakha Bus Stop City Bus","lng":75.87736,"lat":22.7014,"routeCount":10},{"id":"4098","name":"Navlakha Chouraha","lng":75.87791,"lat":22.69931,"routeCount":18},{"id":"4101","name":"Naya Basera","lng":75.78182,"lat":22.74143,"routeCount":10},{"id":"4103","name":"Nipaniya Gram","lng":75.9293,"lat":22.76102,"routeCount":4},{"id":"4105","name":"Noorani Nagar","lng":75.81209,"lat":22.70389,"routeCount":6},{"id":"4106","name":"Narsingh Bazar","lng":75.85033,"lat":22.71563,"routeCount":10},{"id":"4107","name":"Palasiya 56 Shop","lng":75.88533,"lat":22.72362,"routeCount":2},{"id":"4108","name":"Palasiya Thana","lng":75.88816,"lat":22.72546,"routeCount":2},{"id":"4109","name":"Palda Naka","lng":75.88889,"lat":22.68565,"routeCount":13},{"id":"4110","name":"Panchsheel","lng":75.815,"lat":22.72894,"routeCount":13},{"id":"4111","name":"Panchwati","lng":75.90773,"lat":22.79151,"routeCount":4},{"id":"4112","name":"Pardesipura","lng":75.87168,"lat":22.74503,"routeCount":12},{"id":"4113","name":"Patel Pratima","lng":75.87182,"lat":22.71453,"routeCount":2},{"id":"4114","name":"Patnipura","lng":75.88091,"lat":22.73983,"routeCount":13},{"id":"4118","name":"Patrakar Chouraha","lng":75.89483,"lat":22.72221,"routeCount":6},{"id":"4119","name":"Pipli Bazar","lng":75.85373,"lat":22.71615,"routeCount":6},{"id":"4121","name":"Pipliya Hana Square","lng":75.90583,"lat":22.70605,"routeCount":13},{"id":"4123","name":"Polo Ground","lng":75.85739,"lat":22.73456,"routeCount":7},{"id":"4124","name":"Power House_2","lng":75.88906,"lat":22.70012,"routeCount":1},{"id":"4125","name":"Power House_1","lng":75.88457,"lat":22.66012,"routeCount":9},{"id":"4126","name":"Prabhu Nagar","lng":75.83449,"lat":22.67934,"routeCount":2},{"id":"4127","name":"Prakash Nagar_2","lng":75.87971,"lat":22.69595,"routeCount":6},{"id":"4128","name":"Prakash Nagar_1","lng":75.88044,"lat":22.69485,"routeCount":7},{"id":"4132","name":"Pushpkunj","lng":75.88601,"lat":22.65269,"routeCount":10},{"id":"4135","name":"Telephone Nagar","lng":75.90222,"lat":22.72061,"routeCount":4},{"id":"4136","name":"Lokmanya Nagar","lng":75.84431,"lat":22.69601,"routeCount":2},{"id":"4137","name":"Ranipura/ Kothari Market_1","lng":75.86331,"lat":22.71989,"routeCount":14},{"id":"4138","name":"Chanakyapuri Square_1","lng":75.8362,"lat":22.6839,"routeCount":4},{"id":"4139","name":"Bangali Ringroad","lng":75.9063,"lat":22.71914,"routeCount":6},{"id":"4141","name":"Bangali Ringroad","lng":75.90613,"lat":22.71879,"routeCount":2},{"id":"4142","name":"Badwali Chouki","lng":75.84988,"lat":22.7225,"routeCount":6},{"id":"4143","name":"Ashram Chauraha/IT Park","lng":75.87344,"lat":22.68538,"routeCount":19},{"id":"4144","name":"Chhoti Gwaltoli","lng":75.87085,"lat":22.71586,"routeCount":16},{"id":"4145","name":"Regal (Shastri Bridge)","lng":75.86903,"lat":22.71982,"routeCount":8},{"id":"4146","name":"GSITS Chauraha (Marimata Mandir)","lng":75.86913,"lat":22.72535,"routeCount":4},{"id":"4150","name":"Vijay Nagar City Bus","lng":75.89499,"lat":22.75103,"routeCount":19},{"id":"4151","name":"Radisson Hotel","lng":75.90318,"lat":22.74975,"routeCount":2},{"id":"4153","name":"Pardeshipura Thana","lng":75.86748,"lat":22.73916,"routeCount":4},{"id":"4156","name":"Radhaswami","lng":75.87926,"lat":22.67508,"routeCount":10},{"id":"4158","name":"M.Y. Std / MY Chauraha/White Church/Dental Clg","lng":75.8795,"lat":22.71262,"routeCount":18},{"id":"4160","name":"Sawariya Temple","lng":75.90882,"lat":22.69178,"routeCount":2},{"id":"4173","name":"Chitawad_2","lng":75.88225,"lat":22.69211,"routeCount":12},{"id":"4174","name":"Ranipura/ Kothari Market_2","lng":75.86355,"lat":22.71876,"routeCount":12},{"id":"4175","name":"Bangali Ringroad - 1","lng":75.90539,"lat":22.72006,"routeCount":5},{"id":"4176","name":"Indo German","lng":75.84786,"lat":22.78,"routeCount":6},{"id":"4177","name":"Deepmala Dhaba","lng":75.84794,"lat":22.77653,"routeCount":6},{"id":"4178","name":"Narval","lng":75.84778,"lat":22.77264,"routeCount":4},{"id":"4179","name":"Mouni Baba Ashram","lng":75.84766,"lat":22.76904,"routeCount":4},{"id":"4180","name":"Modern Square","lng":75.84756,"lat":22.76436,"routeCount":6},{"id":"4181","name":"Ganesh Dham","lng":75.84784,"lat":22.76073,"routeCount":4},{"id":"4182","name":"Sukhliya (Ujjain Road)","lng":75.84816,"lat":22.75823,"routeCount":6},{"id":"4183","name":"Kharcha","lng":75.84934,"lat":22.75121,"routeCount":4},{"id":"4184","name":"Kushwah Nagar Naka / Ujain Naka","lng":75.84999,"lat":22.74709,"routeCount":4},{"id":"4185","name":"Banganga","lng":75.85122,"lat":22.74445,"routeCount":4},{"id":"4186","name":"Vrindavan Colony","lng":75.84995,"lat":22.7401,"routeCount":4},{"id":"4187","name":"Kumhar Khadi","lng":75.84966,"lat":22.73814,"routeCount":6},{"id":"4188","name":"Haji House","lng":75.85078,"lat":22.73075,"routeCount":4},{"id":"4189","name":"Sadar Bazar Pani Ki Tanki","lng":75.85157,"lat":22.72838,"routeCount":4},{"id":"4190","name":"Sadar Bazar","lng":75.85272,"lat":22.7255,"routeCount":4},{"id":"4191","name":"Shree Krishna Talkies/ Krishnapura Pul_2","lng":75.85878,"lat":22.71931,"routeCount":5},{"id":"4192","name":"Chouthi Paltan","lng":75.84841,"lat":22.72271,"routeCount":6},{"id":"4193","name":"Shri Pandharinath Mandir_1","lng":75.85655,"lat":22.71356,"routeCount":7},{"id":"4194","name":"Chandan Nagar","lng":75.82426,"lat":22.70725,"routeCount":5},{"id":"4195","name":"Apollo DB City","lng":75.9217,"lat":22.75847,"routeCount":4},{"id":"4196","name":"Jain Nursery","lng":75.89802,"lat":22.7595,"routeCount":6},{"id":"4197","name":"Fortune Hotel","lng":75.88469,"lat":22.75344,"routeCount":10},{"id":"4198","name":"Mangal City","lng":75.8963,"lat":22.75132,"routeCount":4},{"id":"4199","name":"Shikshak Nagar","lng":75.82648,"lat":22.72429,"routeCount":1},{"id":"4200","name":"Sai Dwar","lng":75.82475,"lat":22.68657,"routeCount":4},{"id":"4201","name":"Nandlalpura","lng":75.85815,"lat":22.71643,"routeCount":2},{"id":"4202","name":"Narsingh Chouraha","lng":75.84937,"lat":22.71559,"routeCount":2},{"id":"4203","name":"M.T.H._1","lng":75.86429,"lat":22.71984,"routeCount":1},{"id":"4204","name":"Saifee Hotel","lng":75.864,"lat":22.71611,"routeCount":2},{"id":"4205","name":"Sanjay Setu_2","lng":75.86005,"lat":22.71645,"routeCount":4},{"id":"4206","name":"Star Square","lng":75.92285,"lat":22.74625,"routeCount":2},{"id":"4207","name":"Indraprastha / 56 Dukan","lng":75.88345,"lat":22.7271,"routeCount":2},{"id":"4208","name":"Navneet Tower","lng":75.89196,"lat":22.72543,"routeCount":2},{"id":"4209","name":"Haji Colony","lng":75.91878,"lat":22.7413,"routeCount":2},{"id":"4210","name":"Venktesh Gate","lng":75.83067,"lat":22.69582,"routeCount":2},{"id":"4214","name":"Nath Mandir","lng":75.87584,"lat":22.72108,"routeCount":3},{"id":"4216","name":"Suryadev Nagar","lng":75.87184,"lat":22.58904,"routeCount":1},{"id":"4218","name":"Suryadev Nagar","lng":75.82067,"lat":22.68017,"routeCount":3},{"id":"4222","name":"Nagar Nigam Depot_2","lng":75.85892,"lat":22.72445,"routeCount":4},{"id":"4223","name":"Malviya Pump","lng":75.90341,"lat":22.74856,"routeCount":3},{"id":"4224","name":"Pharmacy","lng":75.879,"lat":22.68448,"routeCount":4},{"id":"4225","name":"M R-10 Toll Plaza","lng":75.8603,"lat":22.77568,"routeCount":6},{"id":"4226","name":"B C School","lng":75.80077,"lat":22.73232,"routeCount":4},{"id":"4227","name":"Nai Sadak","lng":75.89983,"lat":22.76691,"routeCount":6},{"id":"4229","name":"Luv Kush Supermarket","lng":75.84719,"lat":22.79522,"routeCount":1},{"id":"4232","name":"Baank","lng":75.80219,"lat":22.70107,"routeCount":4},{"id":"4233","name":"Riverside_1","lng":75.85896,"lat":22.71907,"routeCount":5},{"id":"4234","name":"Riverside_2","lng":75.85974,"lat":22.71993,"routeCount":2},{"id":"4235","name":"Mhow Naka City Bus","lng":75.84432,"lat":22.70537,"routeCount":27},{"id":"4236","name":"Musakhedi Mandi","lng":75.89707,"lat":22.69325,"routeCount":2},{"id":"4237","name":"Narmada Project","lng":75.89328,"lat":22.69627,"routeCount":2},{"id":"4247","name":"Sarwate Bus Stand","lng":75.8686,"lat":22.71381,"routeCount":8},{"id":"4248","name":"Nayta Mundla Bypass","lng":75.91563,"lat":22.6651,"routeCount":3},{"id":"4249","name":"Kampel","lng":76.04865,"lat":22.62041,"routeCount":2},{"id":"4250","name":"Hatod","lng":75.74192,"lat":22.79406,"routeCount":5},{"id":"4252","name":"Bicholi Hapsi","lng":75.93964,"lat":22.71583,"routeCount":1},{"id":"4254","name":"Mahak Vatika","lng":75.90703,"lat":22.74068,"routeCount":2},{"id":"4255","name":"Kanadiya Gram","lng":75.96719,"lat":22.73535,"routeCount":2},{"id":"4256","name":"Nayta Mundla","lng":75.9103,"lat":22.66952,"routeCount":4},{"id":"4257","name":"Silver City","lng":75.91095,"lat":22.65987,"routeCount":4},{"id":"4258","name":"RTO Office","lng":75.90682,"lat":22.67331,"routeCount":5},{"id":"4259","name":"Shubh City","lng":75.89975,"lat":22.67853,"routeCount":2},{"id":"4260","name":"Tejaji Chowk","lng":75.89518,"lat":22.68146,"routeCount":2},{"id":"4261","name":"Pipliyahana Gram","lng":75.9003,"lat":22.70741,"routeCount":5},{"id":"4262","name":"Agriculture College","lng":75.89095,"lat":22.70951,"routeCount":4},{"id":"4263","name":"Roberts Nursing Home","lng":75.88842,"lat":22.71014,"routeCount":4},{"id":"4264","name":"Pink City","lng":75.90671,"lat":22.69958,"routeCount":2},{"id":"4265","name":"Simrol","lng":75.91245,"lat":22.5392,"routeCount":2},{"id":"4266","name":"IIT Simrol","lng":75.91229,"lat":22.52974,"routeCount":2},{"id":"4267","name":"Lakhani Bypass","lng":75.92071,"lat":22.68046,"routeCount":8},{"id":"4268","name":"Ujjaini","lng":75.9979,"lat":22.64482,"routeCount":2},{"id":"4269","name":"White Church","lng":75.88412,"lat":22.71112,"routeCount":5},{"id":"4270","name":"Swarn Bagh","lng":75.90126,"lat":22.7353,"routeCount":2},{"id":"4271","name":"Nath Mandir 1","lng":75.87584,"lat":22.72108,"routeCount":1},{"id":"4305","name":"Ram Bagh","lng":74.87983,"lat":31.6359,"routeCount":2},{"id":"4314","name":"Agrasen Chauraha","lng":75.87329,"lat":22.70368,"routeCount":2},{"id":"4315","name":"Sapna Sangeeta","lng":75.86739,"lat":22.69971,"routeCount":2},{"id":"4316","name":"Reti Mandi Chouraha","lng":75.82298,"lat":22.66381,"routeCount":7},{"id":"4317","name":"D-Mart","lng":75.8232,"lat":22.66652,"routeCount":4},{"id":"4318","name":"Krishna Nagar","lng":75.82383,"lat":22.67175,"routeCount":4},{"id":"4319","name":"Paraspar Nagar","lng":75.82553,"lat":22.67568,"routeCount":4},{"id":"4320","name":"Narmada Chouraha","lng":75.82438,"lat":22.67381,"routeCount":4},{"id":"4321","name":"Siddhipuram","lng":75.82897,"lat":22.67964,"routeCount":4},{"id":"4322","name":"Greater Vaishali","lng":75.83066,"lat":22.68378,"routeCount":4},{"id":"4325","name":"Baneshwari Kund","lng":75.84991,"lat":22.7475,"routeCount":2},{"id":"4326","name":"Indorama Pithampur Sector III","lng":75.5815,"lat":22.63812,"routeCount":2},{"id":"4327","name":"CAT","lng":75.81457,"lat":22.66941,"routeCount":8},{"id":"4328","name":"Dwarkapuri","lng":75.82613,"lat":22.69245,"routeCount":2},{"id":"4329","name":"Airport Gate","lng":75.80718,"lat":22.7292,"routeCount":2},{"id":"4330","name":"Ramkrishna Hospital","lng":75.8102,"lat":22.72996,"routeCount":2},{"id":"4331","name":"Patel Nagar","lng":75.8282,"lat":22.72387,"routeCount":2},{"id":"4332","name":"BAL VINAY MANDIR/ NEHRU PARK RAILWAY STATION","lng":75.8691,"lat":22.72489,"routeCount":2},{"id":"4333","name":"Harsiddhi ","lng":75.85606,"lat":22.71291,"routeCount":1},{"id":"4337","name":"Siddhivinayak hospital","lng":75.9033,"lat":22.7297,"routeCount":2},{"id":"4338","name":"Biyabani","lng":75.84197,"lat":22.71169,"routeCount":2},{"id":"4341","name":"Yashwant Plaza","lng":75.86917,"lat":22.7191,"routeCount":2},{"id":"4343","name":"Sewa Kunj","lng":75.97398,"lat":22.74032,"routeCount":4},{"id":"4344","name":"Karuna Sagar","lng":75.95199,"lat":22.73469,"routeCount":4},{"id":"4345","name":"Spring Valley School","lng":75.9403,"lat":22.73069,"routeCount":4},{"id":"4346","name":"Kanadiya Thana","lng":75.937,"lat":22.7296,"routeCount":4},{"id":"4347","name":"Janta Colony","lng":75.84231,"lat":22.7218,"routeCount":2},{"id":"4348","name":"Nav Factory","lng":75.96065,"lat":22.73473,"routeCount":4},{"id":"4349","name":"Nirmal Dham","lng":75.95341,"lat":22.73462,"routeCount":4},{"id":"4351","name":"Mukti Dham","lng":75.87127,"lat":22.73957,"routeCount":2},{"id":"4352","name":"Kankeshwari Mata Mandir","lng":75.8691,"lat":22.74816,"routeCount":2},{"id":"4354","name":"Tata Tower & Godown","lng":75.90733,"lat":22.79007,"routeCount":4},{"id":"4355","name":"Talawali Chanda Panchayat","lng":75.91471,"lat":22.80197,"routeCount":2},{"id":"4356","name":"Hanuman Mandir Mangliya","lng":75.92023,"lat":22.80957,"routeCount":2},{"id":"4357","name":"Mangliya Gao","lng":75.9264,"lat":22.81773,"routeCount":3},{"id":"4358","name":"Indian Oil Petrol Pump","lng":75.93248,"lat":22.82512,"routeCount":2},{"id":"4359","name":"Ruchi Soya","lng":75.91689,"lat":22.80491,"routeCount":2},{"id":"4361","name":"Chameli Devi School","lng":75.83788,"lat":22.67685,"routeCount":2},{"id":"4364","name":"Umrikheda","lng":75.89167,"lat":22.6063,"routeCount":2},{"id":"4366","name":"Kelod Kartal(Lotus garden)","lng":75.88751,"lat":22.63011,"routeCount":2},{"id":"4367","name":"MPPT","lng":75.88641,"lat":22.62387,"routeCount":2},{"id":"4368","name":"Jairam Toll Kanta","lng":75.91371,"lat":22.68395,"routeCount":8},{"id":"4369","name":"Babul Nagar","lng":75.89447,"lat":22.68772,"routeCount":4},{"id":"4370","name":"Udhyog Nagar","lng":75.9067,"lat":22.68678,"routeCount":6},{"id":"4371","name":"Trenching Ground Indore","lng":75.92474,"lat":22.67837,"routeCount":4},{"id":"4372","name":"Deoguradiya Temple","lng":75.93444,"lat":22.67399,"routeCount":2},{"id":"4373","name":"Sanawadiya","lng":75.94163,"lat":22.65636,"routeCount":2},{"id":"4374","name":"Jamniya Khurd","lng":75.96125,"lat":22.63973,"routeCount":2},{"id":"4375","name":"Rajdhara","lng":75.97479,"lat":22.63714,"routeCount":2},{"id":"4376","name":"Mundla","lng":75.99139,"lat":22.633,"routeCount":2},{"id":"4377","name":"Pivday","lng":76.0283,"lat":22.62323,"routeCount":2},{"id":"4378","name":"Palhar Nagar Water Tank","lng":75.83026,"lat":22.72829,"routeCount":2},{"id":"4382","name":"Super Corridor","lng":75.79558,"lat":22.73544,"routeCount":2},{"id":"4383","name":"Bhairav Baba Mandir","lng":75.76962,"lat":22.75735,"routeCount":2},{"id":"4384","name":"Budhaniya","lng":75.7649,"lat":22.77079,"routeCount":5},{"id":"4385","name":"Pitra Parvat","lng":75.77168,"lat":22.754,"routeCount":11},{"id":"4386","name":"Akashwani Kendra","lng":75.81923,"lat":22.6464,"routeCount":2},{"id":"4387","name":"GOMATGIRI TEMPLE","lng":75.77553,"lat":22.7457,"routeCount":8},{"id":"4388","name":"GOVT. SCHOOL GANDHI NAGAR","lng":75.7749,"lat":22.74852,"routeCount":4},{"id":"4389","name":"ADVANCED ACADEMY","lng":75.92542,"lat":22.75126,"routeCount":2},{"id":"4390","name":"IIM Indore","lng":75.7918,"lat":22.63151,"routeCount":2},{"id":"4391","name":"Morod","lng":75.86781,"lat":22.62164,"routeCount":2},{"id":"4392","name":"Chameli Devi Clg","lng":75.88765,"lat":22.61529,"routeCount":2},{"id":"4393","name":"Shell City","lng":75.90468,"lat":22.56207,"routeCount":2},{"id":"4394","name":"Swami Vivekanand Clg","lng":75.89627,"lat":22.5967,"routeCount":2},{"id":"4395","name":"Sapera Colony","lng":75.89037,"lat":22.60906,"routeCount":2},{"id":"4396","name":"Kanad","lng":75.90339,"lat":22.57156,"routeCount":2},{"id":"4397","name":"9 Mil","lng":75.90151,"lat":22.58064,"routeCount":2},{"id":"4417","name":"HEERA NAGAR THANA","lng":75.87479,"lat":22.75906,"routeCount":2},{"id":"4424","name":"PANDHARINATH THANA","lng":75.8563,"lat":22.7143,"routeCount":2},{"id":"4433","name":"IIT Simrol Gate No - 2","lng":75.91524,"lat":22.51903,"routeCount":2},{"id":"4435","name":"Rau Rangwasa Chauraha","lng":75.80693,"lat":22.63903,"routeCount":4},{"id":"4436","name":"Shiv Chowk Rangwasa","lng":75.78835,"lat":22.64447,"routeCount":2},{"id":"4437","name":"Surya Mandir","lng":75.8064,"lat":22.65822,"routeCount":2},{"id":"4438","name":"Treasure Fantasy","lng":75.80611,"lat":22.65694,"routeCount":2},{"id":"4439","name":"NaidunIa","lng":75.80682,"lat":22.64902,"routeCount":2},{"id":"4440","name":"Govt. College Rau","lng":75.80426,"lat":22.63977,"routeCount":2},{"id":"4441","name":"Mangliya Toll Naka","lng":75.93415,"lat":22.82724,"routeCount":2},{"id":"4444","name":"Shree Vinayak Colony","lng":75.93199,"lat":22.68066,"routeCount":1},{"id":"4447","name":"Bicholi Mardana","lng":75.92823,"lat":22.6989,"routeCount":1},{"id":"4448","name":"Bypass","lng":75.92634,"lat":22.70112,"routeCount":1},{"id":"4449","name":"Agrawal Public School","lng":75.91824,"lat":22.70314,"routeCount":1},{"id":"4450","name":"Tigariya Badshah","lng":75.82946,"lat":22.76223,"routeCount":1},{"id":"4451","name":"Shivalik Parisar","lng":75.94032,"lat":22.67559,"routeCount":1},{"id":"4459","name":"Shiv Nagar","lng":75.91005,"lat":22.68512,"routeCount":2},{"id":"4460","name":"Kalindi","lng":75.93041,"lat":22.68683,"routeCount":1},{"id":"4461","name":"Mahima Smart City","lng":75.79834,"lat":22.75657,"routeCount":2},{"id":"4462","name":"Bada Bangarda","lng":75.79431,"lat":22.75843,"routeCount":2},{"id":"4463","name":"Manushree Nagar","lng":75.81547,"lat":22.73294,"routeCount":2},{"id":"4466","name":"Bohra Colony","lng":75.8011,"lat":22.74604,"routeCount":4},{"id":"4467","name":"Bangarda Road","lng":75.8037,"lat":22.75334,"routeCount":4},{"id":"4468","name":"TCS Square","lng":75.81971,"lat":22.77251,"routeCount":2},{"id":"4469","name":"Infosys Company","lng":75.80857,"lat":22.75971,"routeCount":2},{"id":"4470","name":"Super Corridor Bridge","lng":75.83605,"lat":22.78599,"routeCount":2},{"id":"4471","name":"Residency Area","lng":75.88607,"lat":22.70436,"routeCount":2},{"id":"4474","name":"Eicher Chouraha","lng":75.67722,"lat":22.61107,"routeCount":2},{"id":"4475","name":"Sagour Kuti","lng":75.61344,"lat":22.6293,"routeCount":2},{"id":"4476","name":"A P J Abdul Kalam University","lng":75.93319,"lat":22.79588,"routeCount":2},{"id":"4477","name":"Balaji Enclave","lng":75.92822,"lat":22.79679,"routeCount":2},{"id":"4478","name":"Casa Green Township","lng":75.92058,"lat":22.79763,"routeCount":2},{"id":"4479","name":"Ansal Town","lng":75.91797,"lat":22.79758,"routeCount":2},{"id":"4480","name":"Talawali Chanda","lng":75.91219,"lat":22.79839,"routeCount":2},{"id":"4481","name":"Index Medical College","lng":76.05086,"lat":22.68164,"routeCount":2},{"id":"4482","name":"Devguradiya","lng":75.93377,"lat":22.6755,"routeCount":2},{"id":"4483","name":"Dudhia","lng":75.94377,"lat":22.67625,"routeCount":2},{"id":"4484","name":"Khudel","lng":76.02612,"lat":22.68832,"routeCount":2},{"id":"4485","name":"BSF Colony","lng":75.76494,"lat":22.76766,"routeCount":2},{"id":"4486","name":"Luv Kush/ Super Corridor","lng":75.84645,"lat":22.78985,"routeCount":2},{"id":"4487","name":"Kundan Nagar","lng":75.81845,"lat":22.67626,"routeCount":2},{"id":"4488","name":"California City","lng":75.98173,"lat":22.74521,"routeCount":2},{"id":"4496","name":"Trimala Pride","lng":75.87501,"lat":22.77829,"routeCount":2},{"id":"4497","name":"Bhangarh Square","lng":75.87368,"lat":22.77391,"routeCount":2},{"id":"4498","name":"Vaishnav College","lng":75.85019,"lat":22.82474,"routeCount":2},{"id":"4499","name":"Rewati Range","lng":75.84786,"lat":22.80976,"routeCount":2},{"id":"4500","name":"Toll Naka Ujjain Road","lng":75.84916,"lat":22.81725,"routeCount":2},{"id":"4501","name":"Sanwer","lng":75.83107,"lat":22.9758,"routeCount":1}],"metroStations":[],"metroLines":[],"railStations":[],"railLines":[],"_metrics":{"metroKm":0,"suburbanRailKm":0,"totalRailKm":0,"cyclewayKm":0}}