{"busStops":[{"id":"1","name":"Blue Ritz Society Circle","lng":73.737297,"lat":18.578199,"routeCount":1},{"id":"2","name":"Blue Ritz Main Gate","lng":73.7369,"lat":18.5816,"routeCount":1},{"id":"3","name":"Rediyas Tech Park","lng":73.738197,"lat":18.5819,"routeCount":1},{"id":"4","name":"Mahindra International School","lng":73.737701,"lat":18.582701,"routeCount":1},{"id":"5","name":"Symbiosis College Hinjawadi","lng":73.736504,"lat":18.583401,"routeCount":1},{"id":"6","name":"Infosys Phase 1","lng":73.733299,"lat":18.586399,"routeCount":33},{"id":"7","name":"Siemens","lng":73.732903,"lat":18.5903,"routeCount":34},{"id":"8","name":"Mezza Nine","lng":73.734299,"lat":18.594,"routeCount":34},{"id":"9","name":"Shivaji Chowk Hinjawadi","lng":73.739304,"lat":18.591299,"routeCount":23},{"id":"10","name":"D Mart Hinjawadi","lng":73.744499,"lat":18.5912,"routeCount":18},{"id":"11","name":"Hinjawadi Jakat Naka","lng":73.749603,"lat":18.591,"routeCount":20},{"id":"12","name":"Savtamali Mandir","lng":73.753799,"lat":18.591801,"routeCount":25},{"id":"13","name":"Wakad","lng":73.761803,"lat":18.5924,"routeCount":13},{"id":"14","name":"Mount Vert Society Wakad","lng":73.7696,"lat":18.590099,"routeCount":12},{"id":"15","name":"Mankar Chowk","lng":73.7743,"lat":18.589701,"routeCount":12},{"id":"16","name":"Apple Hospital","lng":73.780502,"lat":18.588699,"routeCount":8},{"id":"17","name":"Vishal Nagar","lng":73.784203,"lat":18.588301,"routeCount":9},{"id":"18","name":"Wakad Phata","lng":73.789299,"lat":18.587799,"routeCount":12},{"id":"19","name":"Rakshak Chowk Brt","lng":73.798698,"lat":18.5812,"routeCount":15},{"id":"20","name":"Aundh Hospital","lng":73.8032,"lat":18.5769,"routeCount":17},{"id":"22","name":"Aundhgaon","lng":73.811897,"lat":18.566799,"routeCount":31},{"id":"23","name":"Bodygate","lng":73.813301,"lat":18.563299,"routeCount":29},{"id":"24","name":"Bremen Chowk","lng":73.815697,"lat":18.559099,"routeCount":21},{"id":"25","name":"Sindh Colony Aundh Road","lng":73.820503,"lat":18.553101,"routeCount":19},{"id":"26","name":"Kasturba Gandhi Vasahat","lng":73.819,"lat":18.555099,"routeCount":20},{"id":"27","name":"Gol Market Aundh Road","lng":73.8218,"lat":18.551201,"routeCount":20},{"id":"28","name":"Bal Kalyan Sanstha","lng":73.823898,"lat":18.5483,"routeCount":20},{"id":"29","name":"Rajbhavan","lng":73.8265,"lat":18.544701,"routeCount":21},{"id":"30","name":"Pune Vidhyapeeth Gate Pashan Road","lng":73.830498,"lat":18.541201,"routeCount":36},{"id":"31","name":"E Square","lng":73.835297,"lat":18.537701,"routeCount":40},{"id":"32","name":"Pumping Station","lng":73.838898,"lat":18.534901,"routeCount":39},{"id":"33","name":"Mhasoba Gate","lng":73.841499,"lat":18.5331,"routeCount":39},{"id":"34","name":"Simla Office","lng":73.849503,"lat":18.530399,"routeCount":39},{"id":"35","name":"Coep Hostel Jm Road","lng":73.850502,"lat":18.5263,"routeCount":42},{"id":"39","name":"Ma Na Pa Nadikhathi","lng":73.855301,"lat":18.5236,"routeCount":2},{"id":"40","name":"Shivaji Maharaj Putla","lng":73.8526,"lat":18.5264,"routeCount":72},{"id":"41","name":"Simla Office","lng":73.848999,"lat":18.5303,"routeCount":49},{"id":"42","name":"Mhasoba Gate","lng":73.8423,"lat":18.5324,"routeCount":44},{"id":"43","name":"Pumping Station","lng":73.8386,"lat":18.534901,"routeCount":42},{"id":"44","name":"Mafatlal Bungalow","lng":73.836304,"lat":18.5366,"routeCount":42},{"id":"45","name":"Rangehills Corner","lng":73.8349,"lat":18.537701,"routeCount":44},{"id":"46","name":"Pune Vidhyapeeth Gate Aundh Road","lng":73.827095,"lat":18.543671,"routeCount":24},{"id":"47","name":"Bal Kalyan Sanstha","lng":73.8237,"lat":18.548201,"routeCount":22},{"id":"48","name":"Gol Market Aundh Road","lng":73.821602,"lat":18.5511,"routeCount":22},{"id":"49","name":"Kasturba Gandhi Vasahat","lng":73.818802,"lat":18.555099,"routeCount":21},{"id":"50","name":"Sindh Colony Aundh Road","lng":73.815804,"lat":18.559099,"routeCount":22},{"id":"51","name":"Bodygate","lng":73.813202,"lat":18.563299,"routeCount":28},{"id":"52","name":"Aundhgaon","lng":73.811798,"lat":18.5667,"routeCount":27},{"id":"53","name":"Sangvi Phata Brt","lng":73.807098,"lat":18.5728,"routeCount":27},{"id":"54","name":"Vishal Nagar","lng":73.784203,"lat":18.5882,"routeCount":9},{"id":"55","name":"Apple Hospital","lng":73.780212,"lat":18.588543,"routeCount":8},{"id":"56","name":"Mount Vert Society Wakad","lng":73.769798,"lat":18.590099,"routeCount":7},{"id":"57","name":"Wakad","lng":73.761597,"lat":18.5924,"routeCount":12},{"id":"58","name":"Savtamali Mandir","lng":73.7537,"lat":18.591499,"routeCount":24},{"id":"59","name":"Hinjawadi Jakat Naka","lng":73.75,"lat":18.5907,"routeCount":17},{"id":"60","name":"D Mart Hinjawadi","lng":73.744202,"lat":18.591,"routeCount":14},{"id":"61","name":"Shivaji Chowk Hinjawadi","lng":73.738899,"lat":18.591,"routeCount":20},{"id":"62","name":"It Park Road","lng":73.737503,"lat":18.5882,"routeCount":35},{"id":"63","name":"Sai Infotech","lng":73.735397,"lat":18.5844,"routeCount":1},{"id":"64","name":"Symbiosis College Hinjawadi","lng":73.736603,"lat":18.5835,"routeCount":1},{"id":"65","name":"Mahindra International School","lng":73.7379,"lat":18.582899,"routeCount":1},{"id":"66","name":"Rediyas Tech Park","lng":73.738297,"lat":18.5818,"routeCount":1},{"id":"67","name":"Blue Ritz Main Gate","lng":73.737099,"lat":18.581499,"routeCount":1},{"id":"68","name":"Hinjawadi Maan Phase 3","lng":73.688202,"lat":18.5765,"routeCount":23},{"id":"69","name":"Tcs Company","lng":73.687599,"lat":18.580999,"routeCount":29},{"id":"70","name":"Tech Mahindra","lng":73.690002,"lat":18.582899,"routeCount":30},{"id":"71","name":"Gangaramwadi Circul","lng":73.693497,"lat":18.584,"routeCount":28},{"id":"72","name":"Dlf Company","lng":73.695396,"lat":18.5844,"routeCount":25},{"id":"73","name":"Tata Motors","lng":73.700104,"lat":18.586901,"routeCount":29},{"id":"74","name":"Power House Hinjawadi","lng":73.705101,"lat":18.589001,"routeCount":25},{"id":"75","name":"Infosys Phase 2","lng":73.707703,"lat":18.5935,"routeCount":25},{"id":"76","name":"Emcure Hinjawadi Road","lng":73.712601,"lat":18.5959,"routeCount":27},{"id":"77","name":"Wipro Company Circle","lng":73.718201,"lat":18.596901,"routeCount":27},{"id":"78","name":"Tata Johnson","lng":73.727402,"lat":18.594601,"routeCount":26},{"id":"79","name":"Bank Of Maharashtra Hinjawadi","lng":73.731697,"lat":18.594101,"routeCount":29},{"id":"80","name":"Wakad Bridge","lng":73.757599,"lat":18.5912,"routeCount":16},{"id":"81","name":"Digambar Marble Kaveri Hotel","lng":73.7612,"lat":18.581499,"routeCount":15},{"id":"82","name":"Balewadi Stadium","lng":73.763702,"lat":18.5751,"routeCount":20},{"id":"83","name":"Radha Hotel","lng":73.766502,"lat":18.5681,"routeCount":18},{"id":"84","name":"Sadanand Hotel","lng":73.767097,"lat":18.568501,"routeCount":8},{"id":"85","name":"Baner Depot","lng":73.768997,"lat":18.5667,"routeCount":6},{"id":"86","name":"Sadanand Hotel","lng":73.766998,"lat":18.568399,"routeCount":8},{"id":"87","name":"Radha Hotel","lng":73.764999,"lat":18.57,"routeCount":19},{"id":"88","name":"Balewadi Stadium","lng":73.763496,"lat":18.574699,"routeCount":20},{"id":"89","name":"Digambar Marble Kaveri Hotel","lng":73.760902,"lat":18.5814,"routeCount":15},{"id":"90","name":"Wakad Bridge","lng":73.757103,"lat":18.591499,"routeCount":20},{"id":"91","name":"Bank Of Maharashtra Hinjawadi","lng":73.731499,"lat":18.5938,"routeCount":21},{"id":"92","name":"Tata Johnson","lng":73.727203,"lat":18.5944,"routeCount":22},{"id":"93","name":"Wipro Company Circle","lng":73.718803,"lat":18.596701,"routeCount":26},{"id":"94","name":"Emcure Hinjawadi Road","lng":73.712502,"lat":18.595699,"routeCount":24},{"id":"95","name":"Infosys Phase 2","lng":73.708199,"lat":18.593599,"routeCount":23},{"id":"96","name":"Power House Hinjawadi","lng":73.705299,"lat":18.589001,"routeCount":21},{"id":"97","name":"Tata Motors","lng":73.700302,"lat":18.5868,"routeCount":28},{"id":"98","name":"Gangaramwadi Circul","lng":73.693802,"lat":18.5832,"routeCount":24},{"id":"99","name":"Tech Mahindra","lng":73.6903,"lat":18.582701,"routeCount":28},{"id":"100","name":"Tcs Company","lng":73.687897,"lat":18.5809,"routeCount":26},{"id":"101","name":"Hinjawadi Maan Phase 3","lng":73.688362,"lat":18.576899,"routeCount":20},{"id":"102","name":"Ma Na Pa Shramik Bhavan","lng":73.855202,"lat":18.5238,"routeCount":29},{"id":"103","name":"Kumbharwada","lng":73.8592,"lat":18.524799,"routeCount":46},{"id":"104","name":"Gadital","lng":73.864304,"lat":18.5271,"routeCount":54},{"id":"105","name":"Ambedkar Bhavan","lng":73.8685,"lat":18.5249,"routeCount":50},{"id":"106","name":"Sassoon Hospital","lng":73.871803,"lat":18.5249,"routeCount":75},{"id":"107","name":"Pune Station Moledina Road","lng":73.8731,"lat":18.527304,"routeCount":57},{"id":"108","name":"Ma Na Pa Dengle Pul Nadikathi","lng":73.855103,"lat":18.523701,"routeCount":10},{"id":"109","name":"Ma Na Pa Dengle Pul Nadikathi","lng":73.855301,"lat":18.5236,"routeCount":22},{"id":"110","name":"Mit Collage","lng":73.815399,"lat":18.5158,"routeCount":1},{"id":"111","name":"Sneh Paradise Society","lng":73.815399,"lat":18.514299,"routeCount":1},{"id":"112","name":"Charushila Society","lng":73.816299,"lat":18.5126,"routeCount":1},{"id":"113","name":"Bedekar Ganpati Mandir","lng":73.8172,"lat":18.5114,"routeCount":1},{"id":"114","name":"Ideal Colony","lng":73.817101,"lat":18.510099,"routeCount":31},{"id":"115","name":"More Vidyalay","lng":73.819603,"lat":18.510401,"routeCount":31},{"id":"116","name":"Paud Phata Paud Road","lng":73.823402,"lat":18.507099,"routeCount":30},{"id":"117","name":"Sndt College","lng":73.828903,"lat":18.507299,"routeCount":67},{"id":"118","name":"Nal Stop","lng":73.832001,"lat":18.508801,"routeCount":68},{"id":"119","name":"Sonal Hall","lng":73.835197,"lat":18.5105,"routeCount":64},{"id":"120","name":"Garware College","lng":73.838997,"lat":18.5124,"routeCount":64},{"id":"121","name":"Deccan Corner","lng":73.841103,"lat":18.513201,"routeCount":63},{"id":"122","name":"Sahitya Parishad","lng":73.845596,"lat":18.511101,"routeCount":21},{"id":"123","name":"Maharashtra Mandal","lng":73.847397,"lat":18.509701,"routeCount":21},{"id":"124","name":"Sp College","lng":73.850899,"lat":18.5075,"routeCount":25},{"id":"125","name":"Madiwale Colony","lng":73.852997,"lat":18.505899,"routeCount":25},{"id":"126","name":"Hirabaug","lng":73.855103,"lat":18.5042,"routeCount":48},{"id":"127","name":"Swargate Corner","lng":73.858398,"lat":18.500799,"routeCount":43},{"id":"128","name":"Swargate","lng":73.858299,"lat":18.4988,"routeCount":85},{"id":"129","name":"Lakshminarayan","lng":73.858116,"lat":18.496956,"routeCount":71},{"id":"130","name":"St Colony","lng":73.857803,"lat":18.493299,"routeCount":65},{"id":"131","name":"Bhapkar Petrol Pump","lng":73.857597,"lat":18.490299,"routeCount":60},{"id":"132","name":"Aranyeshwar Corner","lng":73.857597,"lat":18.4846,"routeCount":29},{"id":"133","name":"Natubaug","lng":73.857201,"lat":18.4804,"routeCount":30},{"id":"134","name":"Padmawati","lng":73.8563,"lat":18.475401,"routeCount":36},{"id":"135","name":"Shankar Maharaj Math","lng":73.857658,"lat":18.468506,"routeCount":36},{"id":"136","name":"Balaji Nagar Corner Satara Road","lng":73.858101,"lat":18.4643,"routeCount":40},{"id":"137","name":"Bharati Vidyapeeth Gate","lng":73.858498,"lat":18.456699,"routeCount":40},{"id":"138","name":"Katraj Sarpodyan","lng":73.858498,"lat":18.4536,"routeCount":35},{"id":"139","name":"More Bag","lng":73.858299,"lat":18.4494,"routeCount":35},{"id":"140","name":"Katraj","lng":73.858597,"lat":18.447701,"routeCount":50},{"id":"141","name":"Katraj","lng":73.858536,"lat":18.4475,"routeCount":47},{"id":"142","name":"Aranyeshwar Corner","lng":73.857597,"lat":18.4844,"routeCount":25},{"id":"143","name":"Lakshminarayan","lng":73.853699,"lat":18.5035,"routeCount":39},{"id":"144","name":"Nehru Stadium","lng":73.856499,"lat":18.500799,"routeCount":34},{"id":"145","name":"Hirabaag","lng":73.853699,"lat":18.5035,"routeCount":56},{"id":"146","name":"Maharashtra Mandal","lng":73.8479,"lat":18.5093,"routeCount":21},{"id":"147","name":"Sahitya Parishad","lng":73.845497,"lat":18.511,"routeCount":21},{"id":"148","name":"Deccan Corner","lng":73.840897,"lat":18.513399,"routeCount":68},{"id":"149","name":"Garware College","lng":73.838898,"lat":18.5126,"routeCount":66},{"id":"150","name":"Sonal Hall","lng":73.834801,"lat":18.510599,"routeCount":68},{"id":"151","name":"Nal Stop","lng":73.833298,"lat":18.5098,"routeCount":68},{"id":"152","name":"Sndt College","lng":73.8284,"lat":18.507299,"routeCount":73},{"id":"153","name":"Paud Phata Paud Road","lng":73.824097,"lat":18.5068,"routeCount":36},{"id":"154","name":"More Vidyalay","lng":73.821098,"lat":18.510099,"routeCount":35},{"id":"155","name":"Ideal Colony","lng":73.818703,"lat":18.511,"routeCount":36},{"id":"156","name":"Sneh Paradise Society","lng":73.815399,"lat":18.5144,"routeCount":1},{"id":"157","name":"Kothrud Depot","lng":73.794502,"lat":18.5079,"routeCount":27},{"id":"158","name":"Bharati Nagar","lng":73.797096,"lat":18.5077,"routeCount":27},{"id":"159","name":"Kachara Depot Kothrud","lng":73.799896,"lat":18.507299,"routeCount":27},{"id":"160","name":"Vanaj Company","lng":73.803902,"lat":18.507099,"routeCount":33},{"id":"161","name":"Vanaj Corner","lng":73.807297,"lat":18.507299,"routeCount":27},{"id":"162","name":"Pratik Nagar","lng":73.809502,"lat":18.508101,"routeCount":29},{"id":"163","name":"Jai Bhavani Nagar","lng":73.812103,"lat":18.509199,"routeCount":30},{"id":"164","name":"Anand Nagar Kothrud","lng":73.8153,"lat":18.509701,"routeCount":30},{"id":"165","name":"Anand Nagar Kothrud","lng":73.814796,"lat":18.5098,"routeCount":35},{"id":"166","name":"Jai Bhavani Nagar","lng":73.812599,"lat":18.5096,"routeCount":34},{"id":"167","name":"Pratik Nagar","lng":73.8097,"lat":18.5084,"routeCount":35},{"id":"168","name":"Vanaj Corner","lng":73.807503,"lat":18.5075,"routeCount":33},{"id":"169","name":"Kachara Depot Kothrud","lng":73.799698,"lat":18.507601,"routeCount":33},{"id":"170","name":"Bharati Nagar","lng":73.796997,"lat":18.507999,"routeCount":32},{"id":"171","name":"Kothrud Depot","lng":73.795197,"lat":18.507999,"routeCount":34},{"id":"172","name":"Lakshminarayan","lng":73.858002,"lat":18.497801,"routeCount":30},{"id":"173","name":"Sarasbaug","lng":73.853798,"lat":18.5035,"routeCount":5},{"id":"174","name":"Dsk Vishwa","lng":73.799103,"lat":18.4433,"routeCount":4},{"id":"175","name":"Ganesh Mandir Dsk","lng":73.799942,"lat":18.447124,"routeCount":4},{"id":"176","name":"Chavan Nagar Dsk Road","lng":73.801697,"lat":18.447001,"routeCount":2},{"id":"177","name":"Chavan Mala","lng":73.803802,"lat":18.4471,"routeCount":5},{"id":"178","name":"Savitri Garden Mangal Karyalay","lng":73.807404,"lat":18.4471,"routeCount":5},{"id":"179","name":"Dhayarigaon","lng":73.810402,"lat":18.447599,"routeCount":10},{"id":"180","name":"Ganesh Nagar Dhayari","lng":73.810997,"lat":18.4505,"routeCount":10},{"id":"181","name":"Raykar Nagar","lng":73.8116,"lat":18.4543,"routeCount":8},{"id":"182","name":"Khondaba Mandir","lng":73.811798,"lat":18.457199,"routeCount":2},{"id":"183","name":"Garmal","lng":73.811798,"lat":18.457199,"routeCount":9},{"id":"184","name":"Dhayari Phata","lng":73.813202,"lat":18.461399,"routeCount":16},{"id":"185","name":"Abhiruchi","lng":73.815498,"lat":18.4643,"routeCount":17},{"id":"186","name":"Vadgaon Budruk Phata","lng":73.817802,"lat":18.466999,"routeCount":17},{"id":"187","name":"Fun Time","lng":73.819397,"lat":18.468599,"routeCount":23},{"id":"188","name":"Indian Hume Pipe","lng":73.820396,"lat":18.4704,"routeCount":22},{"id":"189","name":"Manikbaug","lng":73.821602,"lat":18.473301,"routeCount":23},{"id":"190","name":"Ganesh Park","lng":73.822403,"lat":18.475201,"routeCount":13},{"id":"191","name":"Anand Nagar Sinhagad Road","lng":73.823502,"lat":18.477699,"routeCount":25},{"id":"192","name":"Hingne","lng":73.826202,"lat":18.481701,"routeCount":25},{"id":"193","name":"Vitthalwadi Sinhagad Road","lng":73.827904,"lat":18.4849,"routeCount":26},{"id":"194","name":"Rajaram Pul","lng":73.828499,"lat":18.4872,"routeCount":26},{"id":"195","name":"Rajaram Pul Corner","lng":73.828499,"lat":18.4872,"routeCount":1},{"id":"196","name":"Vitthal Mandir Shreeman Society","lng":73.822998,"lat":18.4909,"routeCount":3},{"id":"197","name":"Shreeman Society","lng":73.821999,"lat":18.491501,"routeCount":3},{"id":"198","name":"Shipra Society","lng":73.820198,"lat":18.492001,"routeCount":3},{"id":"199","name":"Kakade Mangal Karyale","lng":73.817703,"lat":18.490801,"routeCount":2},{"id":"200","name":"Karve Nagar","lng":73.8144,"lat":18.489401,"routeCount":39},{"id":"201","name":"Vadacha Stop","lng":73.8153,"lat":18.4918,"routeCount":43},{"id":"202","name":"Vandevi Karve Road","lng":73.814903,"lat":18.493401,"routeCount":37},{"id":"203","name":"Gandhi Bhavan Phata","lng":73.8134,"lat":18.494699,"routeCount":41},{"id":"204","name":"Kothrud Stand","lng":73.813797,"lat":18.4991,"routeCount":45},{"id":"205","name":"Karve Putala","lng":73.816597,"lat":18.502199,"routeCount":39},{"id":"206","name":"Maruti Mandir Karve Road","lng":73.820297,"lat":18.503599,"routeCount":35},{"id":"207","name":"Paud Phata Karve Road","lng":73.824203,"lat":18.5054,"routeCount":41},{"id":"208","name":"Goodluck Chowk","lng":73.8405,"lat":18.517799,"routeCount":11},{"id":"209","name":"Fergusson College","lng":73.840897,"lat":18.5229,"routeCount":10},{"id":"210","name":"Dyneshwar Paduka Chowk","lng":73.841797,"lat":18.5264,"routeCount":12},{"id":"211","name":"Police Ground","lng":73.848,"lat":18.530701,"routeCount":5},{"id":"212","name":"Simla Office Police Chowky","lng":73.849503,"lat":18.530399,"routeCount":9},{"id":"213","name":"Shivaji Nagar","lng":73.851196,"lat":18.531799,"routeCount":20},{"id":"214","name":"Coep Hostel Jm Road","lng":73.851997,"lat":18.5282,"routeCount":4},{"id":"215","name":"Balgandharv","lng":73.847298,"lat":18.5217,"routeCount":43},{"id":"216","name":"Natraj Talkies","lng":73.844398,"lat":18.518101,"routeCount":43},{"id":"217","name":"Deccan Gymkhana","lng":73.843002,"lat":18.5166,"routeCount":60},{"id":"218","name":"Paud Phata Karve Road","lng":73.824203,"lat":18.5056,"routeCount":40},{"id":"219","name":"Maruti Mandir Karve Road","lng":73.820297,"lat":18.503799,"routeCount":35},{"id":"220","name":"Karve Putala","lng":73.816299,"lat":18.5023,"routeCount":39},{"id":"221","name":"Kothrud Stand","lng":73.813599,"lat":18.4998,"routeCount":45},{"id":"222","name":"Gandhi Bhavan Phata","lng":73.813301,"lat":18.495899,"routeCount":45},{"id":"223","name":"Vandevi Karve Road","lng":73.814697,"lat":18.4932,"routeCount":42},{"id":"224","name":"Vadacha Stop","lng":73.815102,"lat":18.4916,"routeCount":44},{"id":"225","name":"Karve Nagar","lng":73.814301,"lat":18.4888,"routeCount":43},{"id":"226","name":"Shipra Society","lng":73.817902,"lat":18.492399,"routeCount":3},{"id":"227","name":"Shreeman Society","lng":73.820396,"lat":18.4921,"routeCount":3},{"id":"228","name":"Rajaram Pul Corner","lng":73.804298,"lat":18.479799,"routeCount":1},{"id":"229","name":"Rajaram Pul","lng":73.828903,"lat":18.487301,"routeCount":28},{"id":"230","name":"Vitthalwadi Sinhagad Road","lng":73.827797,"lat":18.483801,"routeCount":26},{"id":"231","name":"Hingne","lng":73.825401,"lat":18.480301,"routeCount":25},{"id":"232","name":"Anand Nagar Sinhagad Road","lng":73.823799,"lat":18.477699,"routeCount":25},{"id":"233","name":"Ganesh Park","lng":73.822899,"lat":18.4758,"routeCount":13},{"id":"234","name":"Manikbaug","lng":73.8218,"lat":18.4734,"routeCount":23},{"id":"235","name":"Indian Hume Pipe","lng":73.820602,"lat":18.470301,"routeCount":23},{"id":"236","name":"Fun Time","lng":73.819901,"lat":18.468901,"routeCount":23},{"id":"237","name":"Vadgaon Budruk Phata","lng":73.818298,"lat":18.4671,"routeCount":24},{"id":"238","name":"Abhiruchi","lng":73.815102,"lat":18.4631,"routeCount":18},{"id":"239","name":"Dhayari Phata Dhayari Road","lng":73.812798,"lat":18.4608,"routeCount":7},{"id":"240","name":"Garmal","lng":73.811897,"lat":18.457399,"routeCount":9},{"id":"241","name":"Khondaba Mandir","lng":73.8116,"lat":18.4543,"routeCount":3},{"id":"243","name":"Ganesh Nagar Dhayari","lng":73.811096,"lat":18.4506,"routeCount":9},{"id":"244","name":"Savitri Garden Mangal Karyalay","lng":73.807602,"lat":18.447001,"routeCount":5},{"id":"245","name":"Chavan Mala","lng":73.804001,"lat":18.447001,"routeCount":5},{"id":"246","name":"Chavan Nagar Dsk Road","lng":73.801598,"lat":18.446899,"routeCount":2},{"id":"247","name":"Ganesh Mandir Dsk","lng":73.799896,"lat":18.447001,"routeCount":4},{"id":"248","name":"Pimplegurav","lng":73.818802,"lat":18.593,"routeCount":18},{"id":"249","name":"Suvarnpark","lng":73.819603,"lat":18.5909,"routeCount":8},{"id":"250","name":"Pooja Hospital","lng":73.820099,"lat":18.5888,"routeCount":8},{"id":"251","name":"Ramkrushna Mangal Karyalay","lng":73.821503,"lat":18.586,"routeCount":8},{"id":"252","name":"Raviraj Hotel","lng":73.824303,"lat":18.5833,"routeCount":8},{"id":"253","name":"Shitaladevi Chowk Pimplegurav","lng":73.829498,"lat":18.582199,"routeCount":8},{"id":"254","name":"Dapodi Mantri Niketan","lng":73.830299,"lat":18.58,"routeCount":8},{"id":"255","name":"Shivaji Maharaj Putla Dapodi","lng":73.829803,"lat":18.5791,"routeCount":8},{"id":"256","name":"Buddha Vihar Dapodi","lng":73.830704,"lat":18.5763,"routeCount":8},{"id":"257","name":"Kinara Hotel Bopodi","lng":73.832001,"lat":18.5751,"routeCount":5},{"id":"258","name":"Chhajed Petrol Pump","lng":73.834702,"lat":18.573099,"routeCount":11},{"id":"259","name":"Bhaurao Patil Chowk","lng":73.8312,"lat":18.565201,"routeCount":3},{"id":"260","name":"Smile Up Dawakhana","lng":73.830399,"lat":18.563,"routeCount":3},{"id":"261","name":"Dr Sayyad Dawakhana","lng":73.831398,"lat":18.562599,"routeCount":3},{"id":"262","name":"40 Aundh Road","lng":73.832802,"lat":18.5625,"routeCount":1},{"id":"263","name":"Lic Colony","lng":73.836601,"lat":18.562201,"routeCount":1},{"id":"264","name":"Khadki Station","lng":73.841698,"lat":18.5627,"routeCount":21},{"id":"265","name":"Balbhavan","lng":73.841301,"lat":18.560801,"routeCount":1},{"id":"266","name":"Military Hospital Rangehills","lng":73.840401,"lat":18.556499,"routeCount":1},{"id":"267","name":"Mutton Market Rangehills","lng":73.8423,"lat":18.556101,"routeCount":1},{"id":"268","name":"Rangehills Post Office","lng":73.8433,"lat":18.5529,"routeCount":1},{"id":"269","name":"Rangehills H Type","lng":73.843399,"lat":18.545401,"routeCount":1},{"id":"270","name":"Rangehills Circle 2","lng":73.842201,"lat":18.544901,"routeCount":1},{"id":"271","name":"Rangehills Circle 1","lng":73.839401,"lat":18.544901,"routeCount":1},{"id":"272","name":"Ashok Nagar Rangehills","lng":73.8386,"lat":18.544201,"routeCount":1},{"id":"273","name":"Yashwant Nagar Rangehills","lng":73.836098,"lat":18.5406,"routeCount":1},{"id":"274","name":"Coep Hostel Shivaji Road","lng":73.851997,"lat":18.528299,"routeCount":32},{"id":"275","name":"Manapa Mangala Tolkies","lng":73.854401,"lat":18.5236,"routeCount":10},{"id":"276","name":"Ma Na Pa Congress Bhavan","lng":73.852203,"lat":18.5224,"routeCount":20},{"id":"277","name":"Galinde Path","lng":73.810303,"lat":18.4846,"routeCount":43},{"id":"278","name":"Tapodham","lng":73.807404,"lat":18.481899,"routeCount":38},{"id":"279","name":"Warje Gaon","lng":73.806,"lat":18.480801,"routeCount":23},{"id":"281","name":"Dnyanesh Society","lng":73.798103,"lat":18.478001,"routeCount":34},{"id":"282","name":"Ganpati Matha","lng":73.7957,"lat":18.4758,"routeCount":34},{"id":"283","name":"Ganpati Matha","lng":73.795998,"lat":18.4758,"routeCount":32},{"id":"284","name":"Dnyanesh Society","lng":73.798203,"lat":18.4779,"routeCount":31},{"id":"285","name":"Malwadi","lng":73.801003,"lat":18.4804,"routeCount":26},{"id":"286","name":"Warje Gaon","lng":73.806099,"lat":18.4806,"routeCount":26},{"id":"287","name":"Tapodham","lng":73.807701,"lat":18.481899,"routeCount":40},{"id":"288","name":"Galinde Path","lng":73.810303,"lat":18.4842,"routeCount":45},{"id":"289","name":"Goodluck Chowk","lng":73.841499,"lat":18.5175,"routeCount":36},{"id":"290","name":"Fergusson College","lng":73.840897,"lat":18.521999,"routeCount":32},{"id":"291","name":"Dyneshwar Paduka Chowk","lng":73.841797,"lat":18.526501,"routeCount":31},{"id":"292","name":"Police Line Modern College Road","lng":73.8442,"lat":18.526501,"routeCount":25},{"id":"293","name":"Sawarkar Bhavan","lng":73.849998,"lat":18.5221,"routeCount":18},{"id":"294","name":"Ma Na Pa Congress Bhavan","lng":73.852303,"lat":18.5222,"routeCount":26},{"id":"295","name":"Yashwant Nagar Rangehills","lng":73.839401,"lat":18.545,"routeCount":1},{"id":"296","name":"Ashok Nagar Rangehills","lng":73.842201,"lat":18.545,"routeCount":1},{"id":"297","name":"Rangehills Circle 1","lng":73.839401,"lat":18.545,"routeCount":1},{"id":"298","name":"Rangehills Circle 2","lng":73.8395,"lat":18.545,"routeCount":1},{"id":"299","name":"Rangehills H Type","lng":73.8433,"lat":18.545601,"routeCount":1},{"id":"300","name":"Rangehills Post Office","lng":73.8433,"lat":18.549299,"routeCount":1},{"id":"301","name":"Mutton Market Rangehills","lng":73.8424,"lat":18.556101,"routeCount":1},{"id":"302","name":"Military Hospital Rangehills","lng":73.8396,"lat":18.556999,"routeCount":1},{"id":"303","name":"Balbhavan","lng":73.841202,"lat":18.5609,"routeCount":1},{"id":"304","name":"Khadki Station","lng":73.8414,"lat":18.563,"routeCount":19},{"id":"305","name":"Lic Colony","lng":73.836304,"lat":18.562,"routeCount":1},{"id":"306","name":"40 Aundh Road","lng":73.832802,"lat":18.562401,"routeCount":1},{"id":"307","name":"Dr Sayyad Dawakhana","lng":73.830498,"lat":18.5625,"routeCount":3},{"id":"308","name":"Smile Up Dawakhana","lng":73.830704,"lat":18.563801,"routeCount":3},{"id":"309","name":"Bhaurao Patil Chowk","lng":73.8312,"lat":18.565399,"routeCount":3},{"id":"310","name":"Chhajed Petrol Pump","lng":73.834702,"lat":18.573,"routeCount":11},{"id":"311","name":"Buddha Vihar Dapodi","lng":73.830597,"lat":18.5763,"routeCount":9},{"id":"312","name":"Shivaji Maharaj Putla Dapodi","lng":73.829697,"lat":18.5791,"routeCount":9},{"id":"313","name":"Dapodi Mantri Niketan","lng":73.830101,"lat":18.58,"routeCount":8},{"id":"314","name":"Raviraj Hotel","lng":73.824303,"lat":18.5832,"routeCount":8},{"id":"315","name":"Ramkrushna Mangal Karyalay","lng":73.821999,"lat":18.5854,"routeCount":8},{"id":"316","name":"Pooja Hospital","lng":73.82,"lat":18.5889,"routeCount":8},{"id":"317","name":"Suvarnpark","lng":73.819603,"lat":18.591299,"routeCount":8},{"id":"318","name":"Pune Station Moledina Stand","lng":73.872803,"lat":18.5273,"routeCount":28},{"id":"319","name":"Income Tax Office","lng":73.876701,"lat":18.5254,"routeCount":108},{"id":"320","name":"Gpo","lng":73.875298,"lat":18.5235,"routeCount":78},{"id":"321","name":"Collector Kacheri","lng":73.871902,"lat":18.5243,"routeCount":73},{"id":"322","name":"Zilla Parishad","lng":73.869202,"lat":18.5233,"routeCount":25},{"id":"323","name":"15 August Chowk","lng":73.866501,"lat":18.522301,"routeCount":6},{"id":"324","name":"Apollo Talkies","lng":73.864601,"lat":18.519501,"routeCount":17},{"id":"325","name":"Phadke Haud","lng":73.860298,"lat":18.518999,"routeCount":14},{"id":"326","name":"Jijamatabaug","lng":73.857101,"lat":18.5187,"routeCount":14},{"id":"327","name":"Vasant Talkies","lng":73.856224,"lat":18.518204,"routeCount":31},{"id":"328","name":"Appa Balwant Chowk","lng":73.852997,"lat":18.5168,"routeCount":13},{"id":"329","name":"Kesari Wada","lng":73.849503,"lat":18.5163,"routeCount":6},{"id":"330","name":"Mati Ganpati","lng":73.847,"lat":18.5159,"routeCount":5},{"id":"331","name":"Kulkarni Petrol Pump","lng":73.844704,"lat":18.5131,"routeCount":24},{"id":"332","name":"Shivtirth Nagar","lng":73.808998,"lat":18.511999,"routeCount":2},{"id":"333","name":"Kanchanban Society","lng":73.806396,"lat":18.5123,"routeCount":2},{"id":"334","name":"Mhatoba Nagar","lng":73.805801,"lat":18.515499,"routeCount":2},{"id":"335","name":"Sutardara","lng":73.807899,"lat":18.515499,"routeCount":2},{"id":"336","name":"Sutardara","lng":73.807701,"lat":18.5154,"routeCount":2},{"id":"337","name":"Mhatoba Nagar","lng":73.806,"lat":18.5154,"routeCount":2},{"id":"338","name":"Kanchanban Society","lng":73.806396,"lat":18.5124,"routeCount":2},{"id":"339","name":"Shivtirth Nagar","lng":73.809097,"lat":18.511999,"routeCount":2},{"id":"340","name":"Sambaji Pul Police Chowky","lng":73.844398,"lat":18.5135,"routeCount":4},{"id":"341","name":"Mati Ganpati","lng":73.846901,"lat":18.5159,"routeCount":5},{"id":"343","name":"Dakshinmukhi Maruti","lng":73.853996,"lat":18.5182,"routeCount":36},{"id":"344","name":"Shaniwarwada","lng":73.8545,"lat":18.519699,"routeCount":33},{"id":"345","name":"Jijamatabaug","lng":73.856697,"lat":18.518499,"routeCount":15},{"id":"346","name":"Phadke Haud","lng":73.860298,"lat":18.5189,"routeCount":16},{"id":"347","name":"Apollo Talkies","lng":73.864891,"lat":18.51969,"routeCount":17},{"id":"348","name":"15 August Chowk","lng":73.866501,"lat":18.522499,"routeCount":7},{"id":"349","name":"Ambedkar Bhavan","lng":73.868103,"lat":18.525101,"routeCount":68},{"id":"350","name":"Pune Station Moledina Stand","lng":73.873001,"lat":18.5271,"routeCount":29},{"id":"351","name":"Ma Na Pa Main Gate","lng":73.854202,"lat":18.523001,"routeCount":8},{"id":"352","name":"Pune Vidhyapeeth Gate Pashan Road","lng":73.827599,"lat":18.5418,"routeCount":11},{"id":"353","name":"Wireless Office","lng":73.828201,"lat":18.541901,"routeCount":13},{"id":"354","name":"Loyala High School","lng":73.823799,"lat":18.541401,"routeCount":13},{"id":"355","name":"Abhiman Shree Pashan Road","lng":73.8172,"lat":18.5399,"routeCount":13},{"id":"356","name":"Ncl Colony","lng":73.814796,"lat":18.539801,"routeCount":13},{"id":"357","name":"Ncl Gate","lng":73.813004,"lat":18.5396,"routeCount":13},{"id":"358","name":"Panchwati","lng":73.809097,"lat":18.5389,"routeCount":13},{"id":"359","name":"Marodo Company","lng":73.807701,"lat":18.538601,"routeCount":5},{"id":"360","name":"Imd Colony","lng":73.804497,"lat":18.537701,"routeCount":13},{"id":"361","name":"Ardl Gate","lng":73.802002,"lat":18.537901,"routeCount":13},{"id":"362","name":"Pashan Naka","lng":73.797501,"lat":18.537901,"routeCount":15},{"id":"363","name":"Mes Pumping Station","lng":73.793503,"lat":18.533199,"routeCount":7},{"id":"364","name":"Arde Colony","lng":73.791603,"lat":18.528601,"routeCount":7},{"id":"365","name":"Pashan Tank Rasta","lng":73.786797,"lat":18.5268,"routeCount":7},{"id":"366","name":"Ram Nagar Nda Road","lng":73.7799,"lat":18.5224,"routeCount":6},{"id":"367","name":"Bavdhangaon Police Chowki","lng":73.7799,"lat":18.5224,"routeCount":6},{"id":"368","name":"Bavdhangaon","lng":73.778801,"lat":18.5194,"routeCount":7},{"id":"369","name":"D Palace","lng":73.780502,"lat":18.5175,"routeCount":7},{"id":"370","name":"Bank Of Maharashtra Bavdhan","lng":73.782204,"lat":18.515499,"routeCount":7},{"id":"371","name":"Shinde Nagar Bawdhan","lng":73.782303,"lat":18.512199,"routeCount":7},{"id":"372","name":"Chandani Chowk Pashan Road","lng":73.783096,"lat":18.508101,"routeCount":7},{"id":"373","name":"Shinde Farm","lng":73.789398,"lat":18.508101,"routeCount":22},{"id":"376","name":"Ganeshmala","lng":73.8386,"lat":18.496099,"routeCount":26},{"id":"377","name":"Parvati Jalshuddhikaran Kendra","lng":73.840897,"lat":18.497801,"routeCount":23},{"id":"378","name":"Panmala","lng":73.844002,"lat":18.500099,"routeCount":23},{"id":"379","name":"Dandekar Pul","lng":73.846901,"lat":18.501301,"routeCount":33},{"id":"380","name":"Parvati Payatha","lng":73.852699,"lat":18.4995,"routeCount":24},{"id":"381","name":"Bhikardas Maruti","lng":73.853699,"lat":18.5082,"routeCount":26},{"id":"382","name":"Shanipar","lng":73.853798,"lat":18.512199,"routeCount":22},{"id":"383","name":"Dakshinmukhi Maruti","lng":73.854103,"lat":18.518101,"routeCount":6},{"id":"384","name":"Shaniwarwada","lng":73.8545,"lat":18.5196,"routeCount":13},{"id":"385","name":"Ma Na Pa Nava Pul","lng":73.854195,"lat":18.523611,"routeCount":29},{"id":"386","name":"Coep Hostel Shivaji Road","lng":73.851997,"lat":18.5282,"routeCount":9},{"id":"387","name":"Kasba Peth Police Chowky","lng":73.855904,"lat":18.5205,"routeCount":29},{"id":"388","name":"Gadikhana Shivaji Road","lng":73.857803,"lat":18.5124,"routeCount":8},{"id":"389","name":"Shahu Chowk","lng":73.858002,"lat":18.509701,"routeCount":9},{"id":"390","name":"Shivaji Maratha High School","lng":73.858597,"lat":18.505899,"routeCount":11},{"id":"391","name":"Gokul Bhavan","lng":73.858704,"lat":18.501801,"routeCount":26},{"id":"392","name":"Swargate Natraj Stand","lng":73.857697,"lat":18.5005,"routeCount":19},{"id":"393","name":"Parvati Payatha","lng":73.852402,"lat":18.499201,"routeCount":27},{"id":"394","name":"Dandekar Pul","lng":73.846703,"lat":18.501101,"routeCount":38},{"id":"395","name":"Panmala","lng":73.844902,"lat":18.5005,"routeCount":21},{"id":"396","name":"Ganeshmala","lng":73.837799,"lat":18.495399,"routeCount":28},{"id":"398","name":"Pune Vidhyapeeth Gate","lng":73.830933,"lat":18.540449,"routeCount":5},{"id":"399","name":"Ganjavewadi","lng":73.843697,"lat":18.509501,"routeCount":25},{"id":"400","name":"Dharmvir Sambhaji Manapa Shala","lng":73.844002,"lat":18.5086,"routeCount":25},{"id":"401","name":"Lokmanya Nagar","lng":73.8452,"lat":18.5042,"routeCount":25},{"id":"402","name":"Ambil Odha Colony","lng":73.8498,"lat":18.5044,"routeCount":14},{"id":"403","name":"Swargate Police Line","lng":73.859901,"lat":18.500601,"routeCount":28},{"id":"404","name":"Swargate Depot","lng":73.861198,"lat":18.500099,"routeCount":28},{"id":"405","name":"Ghorpade Peth","lng":73.8638,"lat":18.4998,"routeCount":27},{"id":"406","name":"St Vibhagiya Karyalaya","lng":73.866501,"lat":18.500401,"routeCount":27},{"id":"407","name":"Mira Society","lng":73.870697,"lat":18.5016,"routeCount":17},{"id":"408","name":"Golibar Maidan","lng":73.875999,"lat":18.5021,"routeCount":17},{"id":"409","name":"Mahatma Gandhi Stand","lng":73.882202,"lat":18.506201,"routeCount":44},{"id":"410","name":"Racecourse","lng":73.890297,"lat":18.5065,"routeCount":43},{"id":"411","name":"Bhairoba Nala Police Chowky","lng":73.896896,"lat":18.506901,"routeCount":41},{"id":"412","name":"Fatima Nagar","lng":73.9021,"lat":18.506599,"routeCount":40},{"id":"413","name":"Kalubai Mandir Ramtekdi","lng":73.906403,"lat":18.5065,"routeCount":34},{"id":"414","name":"Ramtekdi","lng":73.91214,"lat":18.506193,"routeCount":37},{"id":"415","name":"Vaiduwadi","lng":73.92099,"lat":18.504051,"routeCount":35},{"id":"416","name":"Magarpatta Dawakhana","lng":73.926697,"lat":18.5026,"routeCount":44},{"id":"417","name":"Hadapsar Gaon","lng":73.933197,"lat":18.501699,"routeCount":12},{"id":"418","name":"Tupe Hospital","lng":73.935898,"lat":18.501301,"routeCount":32},{"id":"419","name":"Hadapsar Gadital","lng":73.939102,"lat":18.5002,"routeCount":47},{"id":"420","name":"Glyding Center","lng":73.941002,"lat":18.498301,"routeCount":28},{"id":"421","name":"Satavwadi","lng":73.943001,"lat":18.496799,"routeCount":28},{"id":"422","name":"Gondhale Nagar","lng":73.947502,"lat":18.493601,"routeCount":26},{"id":"423","name":"Satyapuram","lng":73.949097,"lat":18.491501,"routeCount":28},{"id":"424","name":"Ibm","lng":73.9506,"lat":18.4893,"routeCount":28},{"id":"425","name":"Ganga Nagar Saswad Road","lng":73.952003,"lat":18.487801,"routeCount":22},{"id":"426","name":"Bhekrai Nagar","lng":73.953903,"lat":18.4837,"routeCount":27},{"id":"427","name":"Ganga Nagar Saswad Road","lng":73.952003,"lat":18.4877,"routeCount":28},{"id":"428","name":"Ibm","lng":73.950699,"lat":18.489401,"routeCount":27},{"id":"429","name":"Satyapuram","lng":73.948997,"lat":18.491301,"routeCount":26},{"id":"430","name":"Gondhale Nagar","lng":73.947098,"lat":18.493799,"routeCount":27},{"id":"431","name":"Satavwadi","lng":73.9431,"lat":18.496901,"routeCount":28},{"id":"432","name":"Glyding Center","lng":73.9412,"lat":18.498301,"routeCount":28},{"id":"433","name":"Krishna Chhaya Hotel","lng":73.937531,"lat":18.500801,"routeCount":47},{"id":"434","name":"Hadapsar Bhaji Mandai","lng":73.934303,"lat":18.5012,"routeCount":22},{"id":"435","name":"Hadapsargaon","lng":73.933296,"lat":18.501301,"routeCount":47},{"id":"436","name":"Magarpatta Dawakhana","lng":73.926598,"lat":18.502701,"routeCount":35},{"id":"437","name":"Ramtekdi","lng":73.912201,"lat":18.506399,"routeCount":37},{"id":"438","name":"Fatima Nagar","lng":73.901733,"lat":18.506443,"routeCount":38},{"id":"439","name":"Bhairoba Nala Police Chowky","lng":73.896896,"lat":18.506701,"routeCount":40},{"id":"440","name":"Racecourse","lng":73.890297,"lat":18.5063,"routeCount":41},{"id":"441","name":"Mira Society","lng":73.870499,"lat":18.501801,"routeCount":16},{"id":"442","name":"St Vibhagiya Karyalaya","lng":73.866501,"lat":18.5005,"routeCount":28},{"id":"443","name":"Ghorpade Peth","lng":73.863899,"lat":18.5,"routeCount":30},{"id":"444","name":"Swargate Depot","lng":73.861298,"lat":18.500299,"routeCount":30},{"id":"445","name":"Ambil Odha Colony","lng":73.850098,"lat":18.504299,"routeCount":16},{"id":"446","name":"Prakash Cloth Store","lng":73.8451,"lat":18.503799,"routeCount":18},{"id":"447","name":"Lokmanya Nagar","lng":73.845001,"lat":18.504101,"routeCount":25},{"id":"448","name":"Dharmvir Sambhaji Manapa Shala","lng":73.844055,"lat":18.507938,"routeCount":26},{"id":"449","name":"Ganjavewadi","lng":73.843803,"lat":18.5086,"routeCount":24},{"id":"450","name":"Bhekrai Nagar","lng":73.95372,"lat":18.483631,"routeCount":7},{"id":"451","name":"Ganga Nagar Saswad Road","lng":73.952019,"lat":18.48715,"routeCount":6},{"id":"452","name":"Hadapsar Gadital","lng":73.938652,"lat":18.50025,"routeCount":10},{"id":"453","name":"Hadapsar Bhaji Mandai","lng":73.934799,"lat":18.501101,"routeCount":18},{"id":"454","name":"Hadapsargaon","lng":73.933197,"lat":18.501699,"routeCount":22},{"id":"455","name":"Vaiduwadi","lng":73.921089,"lat":18.504257,"routeCount":4},{"id":"456","name":"Kalubai Mandir Ramtekdi","lng":73.907494,"lat":18.506483,"routeCount":11},{"id":"457","name":"Mahatma Gandhi Stand","lng":73.882202,"lat":18.5058,"routeCount":8},{"id":"458","name":"Ma Na Pa Shramik Bhavan","lng":73.853302,"lat":18.523001,"routeCount":24},{"id":"459","name":"Kumbharwada","lng":73.858704,"lat":18.5247,"routeCount":45},{"id":"460","name":"Collector Kacheri","lng":73.872444,"lat":18.524639,"routeCount":38},{"id":"461","name":"Gpo","lng":73.876503,"lat":18.5235,"routeCount":60},{"id":"462","name":"Westend","lng":73.878098,"lat":18.5187,"routeCount":36},{"id":"463","name":"Bombay Garage","lng":73.879898,"lat":18.512899,"routeCount":32},{"id":"464","name":"Juna Pulgate","lng":73.879501,"lat":18.508499,"routeCount":38},{"id":"466","name":"Tupe Hospital","lng":73.935997,"lat":18.500999,"routeCount":12},{"id":"467","name":"Mg Road Pune Camp","lng":73.879677,"lat":18.515644,"routeCount":25},{"id":"468","name":"Swargate Corner","lng":73.857597,"lat":18.5019,"routeCount":8},{"id":"469","name":"Ambedkar Nagar Pimplegurav","lng":73.816597,"lat":18.590799,"routeCount":5},{"id":"470","name":"Ram Nagar Pimple Gurav","lng":73.812897,"lat":18.588699,"routeCount":5},{"id":"471","name":"Gajanan Maharaj Nagar Pimplegurav","lng":73.813599,"lat":18.586399,"routeCount":5},{"id":"472","name":"Katepuram Chowk","lng":73.816101,"lat":18.5847,"routeCount":8},{"id":"473","name":"Krushna Bazar Chowk","lng":73.815598,"lat":18.582001,"routeCount":4},{"id":"474","name":"Sai Chowk Navi Sangvi","lng":73.816002,"lat":18.5784,"routeCount":9},{"id":"475","name":"Phemas Chowk","lng":73.812302,"lat":18.5795,"routeCount":1},{"id":"476","name":"Swami Vivekanand Nagar","lng":73.811897,"lat":18.577299,"routeCount":1},{"id":"477","name":"Navi Sangvi","lng":73.812202,"lat":18.5762,"routeCount":16},{"id":"478","name":"Br Gholap Vidyalay","lng":73.808403,"lat":18.5751,"routeCount":16},{"id":"479","name":"Police Line Aundh","lng":73.813499,"lat":18.5616,"routeCount":7},{"id":"480","name":"Police Workshop","lng":73.810501,"lat":18.561399,"routeCount":7},{"id":"481","name":"Iti Aundh","lng":73.809196,"lat":18.559299,"routeCount":8},{"id":"482","name":"Anand Park Iti Road","lng":73.809097,"lat":18.5564,"routeCount":8},{"id":"483","name":"Sanewadi","lng":73.809601,"lat":18.553499,"routeCount":8},{"id":"484","name":"Baner Phata","lng":73.809502,"lat":18.550699,"routeCount":13},{"id":"485","name":"National Society Baner Road","lng":73.810997,"lat":18.549601,"routeCount":12},{"id":"486","name":"Sindh Colony Baner Road","lng":73.814796,"lat":18.548,"routeCount":12},{"id":"487","name":"Abhiman Shree Baner Road","lng":73.816902,"lat":18.547199,"routeCount":10},{"id":"488","name":"Sakal Nagar Baner Road","lng":73.819397,"lat":18.546499,"routeCount":12},{"id":"489","name":"Chavan Nagar Baner Road","lng":73.823196,"lat":18.545,"routeCount":12},{"id":"490","name":"Pune Viddhyapith Chowk","lng":73.830498,"lat":18.541201,"routeCount":8},{"id":"491","name":"Ganpati Chowk Laxmi Road","lng":73.855003,"lat":18.5149,"routeCount":7},{"id":"492","name":"Pune Vidhyapeeth Gate Baner Road","lng":73.826698,"lat":18.5424,"routeCount":11},{"id":"493","name":"Chavan Nagar Baner Road","lng":73.822403,"lat":18.5453,"routeCount":10},{"id":"494","name":"Sakal Nagar Baner Road","lng":73.819099,"lat":18.5464,"routeCount":12},{"id":"495","name":"Abhiman Shree Baner Road","lng":73.816597,"lat":18.547199,"routeCount":12},{"id":"496","name":"Sindh Colony Baner Road","lng":73.813904,"lat":18.548201,"routeCount":12},{"id":"497","name":"National Society Baner Road","lng":73.811096,"lat":18.5494,"routeCount":11},{"id":"498","name":"Baner Phata","lng":73.8097,"lat":18.5504,"routeCount":12},{"id":"499","name":"Sanewadi","lng":73.809502,"lat":18.553499,"routeCount":5},{"id":"500","name":"Anand Park Iti Road","lng":73.809303,"lat":18.5564,"routeCount":8},{"id":"501","name":"Iti Aundh","lng":73.808998,"lat":18.5595,"routeCount":8},{"id":"502","name":"Police Workshop","lng":73.810204,"lat":18.561399,"routeCount":7},{"id":"503","name":"Police Line Aundh","lng":73.813499,"lat":18.561701,"routeCount":7},{"id":"504","name":"Br Gholap Vidyalay","lng":73.808296,"lat":18.575199,"routeCount":16},{"id":"505","name":"Navi Sangvi","lng":73.812202,"lat":18.5763,"routeCount":16},{"id":"506","name":"Sai Chowk Navi Sangvi","lng":73.815804,"lat":18.5784,"routeCount":9},{"id":"507","name":"Krushna Bazar Chowk","lng":73.815498,"lat":18.581699,"routeCount":4},{"id":"508","name":"Katepuram Chowk","lng":73.8162,"lat":18.5858,"routeCount":9},{"id":"509","name":"Vasantdada Putala Sangvi","lng":73.826103,"lat":18.575199,"routeCount":6},{"id":"519","name":"Pwd Colony Navi Sangvi","lng":73.817299,"lat":18.5755,"routeCount":9},{"id":"520","name":"Panyachi Taki Navi Sangvi","lng":73.815201,"lat":18.5753,"routeCount":16},{"id":"521","name":"Panyachi Taki Navi Sangvi","lng":73.814903,"lat":18.575399,"routeCount":11},{"id":"522","name":"Pwd Colony Navi Sangvi","lng":73.8172,"lat":18.5756,"routeCount":9},{"id":"524","name":"Vasantdada Putala Sangvi","lng":73.825798,"lat":18.5751,"routeCount":6},{"id":"525","name":"Chandramani Nagar","lng":73.823601,"lat":18.5748,"routeCount":9},{"id":"526","name":"Mahadev Mandir Sangvi","lng":73.819801,"lat":18.5762,"routeCount":1},{"id":"527","name":"Makan Hospital","lng":73.819603,"lat":18.576099,"routeCount":8},{"id":"528","name":"Chandramani Nagar","lng":73.823601,"lat":18.5749,"routeCount":9},{"id":"529","name":"Bajirao Padale Chowk Mhalunge","lng":73.735703,"lat":18.5651,"routeCount":2},{"id":"530","name":"River Hills Society","lng":73.737396,"lat":18.565701,"routeCount":2},{"id":"531","name":"Waghjainagar Mhalunge","lng":73.739899,"lat":18.566401,"routeCount":2},{"id":"532","name":"Green Hill Colony","lng":73.744797,"lat":18.5681,"routeCount":2},{"id":"533","name":"Hotel Vithai","lng":73.747597,"lat":18.568501,"routeCount":2},{"id":"534","name":"Sutar Vasti","lng":73.750801,"lat":18.568501,"routeCount":2},{"id":"535","name":"Kolekar Nagar","lng":73.754097,"lat":18.572701,"routeCount":2},{"id":"536","name":"Shahid Sopan Padalenagar","lng":73.754898,"lat":18.573601,"routeCount":2},{"id":"537","name":"Mhalungegaon","lng":73.755501,"lat":18.5746,"routeCount":2},{"id":"538","name":"Surymukhi Ganesh Mandir","lng":73.756897,"lat":18.5735,"routeCount":2},{"id":"539","name":"Shitala Devi Nagar","lng":73.758598,"lat":18.5725,"routeCount":2},{"id":"540","name":"Mhalunge Stadium Gate","lng":73.760803,"lat":18.571301,"routeCount":2},{"id":"541","name":"Mhalunge Corner","lng":73.764503,"lat":18.569799,"routeCount":2},{"id":"542","name":"D Mart Balewadi","lng":73.769157,"lat":18.566881,"routeCount":4},{"id":"543","name":"Rajyoag Society","lng":73.773293,"lat":18.5653,"routeCount":5},{"id":"544","name":"Kalamkar Vasti","lng":73.775635,"lat":18.564486,"routeCount":5},{"id":"545","name":"Prabhavi Tech Park","lng":73.778999,"lat":18.564301,"routeCount":5},{"id":"546","name":"Balewadi Phata","lng":73.783096,"lat":18.563499,"routeCount":8},{"id":"547","name":"Banergaon Odha","lng":73.785896,"lat":18.5616,"routeCount":8},{"id":"548","name":"Banergaon","lng":73.7892,"lat":18.5599,"routeCount":8},{"id":"549","name":"Kapil Malhar Society","lng":73.791603,"lat":18.558901,"routeCount":8},{"id":"550","name":"Kundan Garden","lng":73.794403,"lat":18.556601,"routeCount":8},{"id":"551","name":"Ambedkar Nagar Baner","lng":73.796204,"lat":18.555099,"routeCount":8},{"id":"552","name":"Mahabaleshwar Hotel","lng":73.798698,"lat":18.555099,"routeCount":8},{"id":"553","name":"Trimurti Bungalow","lng":73.8013,"lat":18.5546,"routeCount":8},{"id":"554","name":"Green Park","lng":73.804398,"lat":18.551701,"routeCount":8},{"id":"555","name":"Someshwarwadi Phata","lng":73.805099,"lat":18.5511,"routeCount":6},{"id":"556","name":"Pune Vidhyapeeth Gate Aundh Road","lng":73.830299,"lat":18.5408,"routeCount":1},{"id":"557","name":"Ma Na Pa Daphale Garage","lng":73.852798,"lat":18.5233,"routeCount":8},{"id":"558","name":"Someshwarwadi Phata","lng":73.805,"lat":18.5509,"routeCount":8},{"id":"559","name":"Green Park","lng":73.803802,"lat":18.552,"routeCount":8},{"id":"560","name":"Trimurti Bungalow","lng":73.800797,"lat":18.5546,"routeCount":8},{"id":"561","name":"Mahabaleshwar Hotel","lng":73.798698,"lat":18.5548,"routeCount":8},{"id":"562","name":"Ambedkar Nagar Baner","lng":73.7957,"lat":18.555099,"routeCount":8},{"id":"563","name":"Kundan Garden","lng":73.794502,"lat":18.5562,"routeCount":8},{"id":"564","name":"Kapil Malhar Society","lng":73.790901,"lat":18.559,"routeCount":8},{"id":"565","name":"Banergaon","lng":73.789001,"lat":18.559799,"routeCount":8},{"id":"566","name":"Banergaon Odha","lng":73.7855,"lat":18.561501,"routeCount":8},{"id":"567","name":"Balewadi Phata","lng":73.782501,"lat":18.563601,"routeCount":8},{"id":"568","name":"Prabhavi Tech Park","lng":73.779297,"lat":18.5641,"routeCount":5},{"id":"569","name":"Kalamkar Vasti","lng":73.7761,"lat":18.564301,"routeCount":5},{"id":"570","name":"Rajyoag Society","lng":73.7733,"lat":18.565201,"routeCount":5},{"id":"571","name":"D Mart Balewadi","lng":73.770798,"lat":18.566099,"routeCount":4},{"id":"572","name":"Mhalunge Corner","lng":73.7649,"lat":18.569401,"routeCount":2},{"id":"573","name":"Mhalunge Stadium Gate","lng":73.760597,"lat":18.571199,"routeCount":2},{"id":"574","name":"Shitala Devi Nagar","lng":73.758598,"lat":18.5723,"routeCount":2},{"id":"575","name":"Surymukhi Ganesh Mandir","lng":73.756897,"lat":18.573299,"routeCount":2},{"id":"576","name":"Mhalungegaon","lng":73.755402,"lat":18.5746,"routeCount":2},{"id":"577","name":"Shahid Sopan Padalenagar","lng":73.755096,"lat":18.573601,"routeCount":2},{"id":"578","name":"Sutar Vasti","lng":73.750801,"lat":18.5686,"routeCount":2},{"id":"579","name":"Hotel Vithai","lng":73.747398,"lat":18.568399,"routeCount":2},{"id":"580","name":"Green Hill Colony","lng":73.745003,"lat":18.568001,"routeCount":2},{"id":"581","name":"Waghjainagar Mhalunge","lng":73.7397,"lat":18.566099,"routeCount":2},{"id":"582","name":"River Hills Society","lng":73.737,"lat":18.565399,"routeCount":2},{"id":"583","name":"Bajirao Padale Chowk Mhalunge","lng":73.735603,"lat":18.5646,"routeCount":2},{"id":"584","name":"Shivaji Chowk Hinjawadi","lng":73.738998,"lat":18.5917,"routeCount":10},{"id":"585","name":"D Mart Hinjawadi","lng":73.739502,"lat":18.594601,"routeCount":10},{"id":"586","name":"Hinjawadi Jakat Naka","lng":73.742302,"lat":18.5982,"routeCount":12},{"id":"587","name":"Sant Tukaram Mangal Karyalay","lng":73.743797,"lat":18.599199,"routeCount":11},{"id":"588","name":"Draupada Mangal Karyalay","lng":73.744629,"lat":18.59976,"routeCount":11},{"id":"589","name":"Bhumkar Vasti","lng":73.749603,"lat":18.6029,"routeCount":11},{"id":"590","name":"Bhumkar Chowk","lng":73.752701,"lat":18.6057,"routeCount":20},{"id":"591","name":"Kala Khadak Vasahat","lng":73.756104,"lat":18.6073,"routeCount":17},{"id":"592","name":"Pandit Automotive","lng":73.759598,"lat":18.610399,"routeCount":17},{"id":"593","name":"Ganesh Nagar Dange Chowk","lng":73.762901,"lat":18.6129,"routeCount":18},{"id":"594","name":"Dange Chowk","lng":73.765999,"lat":18.614599,"routeCount":31},{"id":"595","name":"Laxman Nagar","lng":73.768501,"lat":18.611401,"routeCount":14},{"id":"596","name":"16 Number Santosh Nagar","lng":73.771896,"lat":18.6078,"routeCount":14},{"id":"597","name":"Kalewadi Phata","lng":73.7761,"lat":18.604601,"routeCount":17},{"id":"598","name":"Shivraj Nagar","lng":73.780014,"lat":18.600084,"routeCount":15},{"id":"599","name":"Jagtap Dairy","lng":73.7845,"lat":18.593201,"routeCount":14},{"id":"600","name":"Ganesh Nagar Dange Chowk","lng":73.762901,"lat":18.613199,"routeCount":19},{"id":"601","name":"Pandit Automotive","lng":73.759499,"lat":18.6105,"routeCount":19},{"id":"602","name":"Kala Khadak Vasahat","lng":73.755402,"lat":18.607,"routeCount":18},{"id":"603","name":"Bhumkar Chowk","lng":73.752701,"lat":18.606001,"routeCount":21},{"id":"604","name":"Draupada Mangal Karyalay","lng":73.7463,"lat":18.600901,"routeCount":11},{"id":"605","name":"Sant Tukaram Mangal Karyalay","lng":73.744003,"lat":18.599001,"routeCount":11},{"id":"606","name":"Hinjawadi Jakat Naka","lng":73.742401,"lat":18.598,"routeCount":11},{"id":"607","name":"Hinjawadigaon","lng":73.739601,"lat":18.594601,"routeCount":11},{"id":"608","name":"Shivaji Chowk  Dange Chowk Road","lng":73.739098,"lat":18.591999,"routeCount":11},{"id":"609","name":"Raikarmala","lng":73.809502,"lat":18.4333,"routeCount":1},{"id":"610","name":"Jadhav Nagar Raikarmala Road","lng":73.809502,"lat":18.434,"routeCount":1},{"id":"611","name":"Kalubali Chowk","lng":73.809402,"lat":18.436899,"routeCount":1},{"id":"612","name":"Mukai Nagar Dhayari","lng":73.809303,"lat":18.4387,"routeCount":1},{"id":"613","name":"Dhayari Maruti Mandir","lng":73.809799,"lat":18.442499,"routeCount":1},{"id":"614","name":"Dhayareshwar Mandir","lng":73.812599,"lat":18.4424,"routeCount":3},{"id":"615","name":"Chavan Shala","lng":73.8144,"lat":18.4424,"routeCount":3},{"id":"616","name":"Shivshankar Mitra Mandal Chowk","lng":73.815804,"lat":18.443199,"routeCount":3},{"id":"617","name":"Benkar Vasti","lng":73.815399,"lat":18.4457,"routeCount":5},{"id":"618","name":"Saipuram Corner","lng":73.8144,"lat":18.446699,"routeCount":5},{"id":"619","name":"Khandoba Mandir Dhayri","lng":73.811752,"lat":18.455725,"routeCount":6},{"id":"620","name":"Ganesh Park Sinhagad Road","lng":73.822403,"lat":18.475201,"routeCount":10},{"id":"621","name":"Jaidev Nagar","lng":73.831001,"lat":18.489401,"routeCount":27},{"id":"622","name":"Vitthalwadi Jakat Naka","lng":73.833099,"lat":18.491199,"routeCount":25},{"id":"623","name":"P.L. Deshpande Udyan","lng":73.834702,"lat":18.4928,"routeCount":26},{"id":"624","name":"P.L. Deshpande Udyan","lng":73.836098,"lat":18.493999,"routeCount":25},{"id":"625","name":"Vitthalwadi Jakat Naka","lng":73.832497,"lat":18.4902,"routeCount":27},{"id":"626","name":"Jaidev Nagar","lng":73.830299,"lat":18.4888,"routeCount":27},{"id":"627","name":"Ganesh Park Sinhagad Road","lng":73.822899,"lat":18.4758,"routeCount":9},{"id":"628","name":"Khandoba Mandir","lng":73.8116,"lat":18.4543,"routeCount":3},{"id":"629","name":"Saipuram Corner","lng":73.814598,"lat":18.4468,"routeCount":4},{"id":"630","name":"Benkar Vasti","lng":73.815598,"lat":18.445801,"routeCount":4},{"id":"631","name":"Shivshankar Mitra Mandal Chowk","lng":73.815903,"lat":18.4431,"routeCount":3},{"id":"632","name":"Chavan Shala","lng":73.8144,"lat":18.442301,"routeCount":3},{"id":"633","name":"Dhayareshwar Mandir","lng":73.812798,"lat":18.442301,"routeCount":3},{"id":"634","name":"Dhayari Maruti Mandir","lng":73.809898,"lat":18.4424,"routeCount":1},{"id":"635","name":"Jadhav Nagar Raikarmala Road","lng":73.809502,"lat":18.433901,"routeCount":1},{"id":"636","name":"Jadhav Nagar Shingad Road","lng":73.794899,"lat":18.4533,"routeCount":8},{"id":"637","name":"Indumati Dalvi Shala","lng":73.796303,"lat":18.452801,"routeCount":1},{"id":"638","name":"Pokle Bag","lng":73.798103,"lat":18.4501,"routeCount":1},{"id":"639","name":"Hanuman Supar Market","lng":73.802399,"lat":18.4491,"routeCount":1},{"id":"640","name":"Jadhav Nagar Shingad Road","lng":73.7957,"lat":18.4545,"routeCount":1},{"id":"641","name":"Suncity","lng":73.814499,"lat":18.4748,"routeCount":4},{"id":"642","name":"Krushna Mandir Suncity","lng":73.816101,"lat":18.4751,"routeCount":4},{"id":"643","name":"Star Garden","lng":73.817802,"lat":18.476299,"routeCount":4},{"id":"644","name":"Shivpushpak Park","lng":73.820999,"lat":18.4786,"routeCount":3},{"id":"645","name":"Shivpushpak Park","lng":73.820999,"lat":18.4785,"routeCount":4},{"id":"646","name":"Star Garden","lng":73.817902,"lat":18.4765,"routeCount":4},{"id":"647","name":"Krushna Mandir Suncity","lng":73.8162,"lat":18.4753,"routeCount":4},{"id":"648","name":"Suncity","lng":73.813499,"lat":18.474701,"routeCount":4},{"id":"649","name":"Venutai Chavan College","lng":73.833099,"lat":18.4695,"routeCount":3},{"id":"650","name":"Venutai Chavan College Payatha","lng":73.833,"lat":18.4685,"routeCount":4},{"id":"651","name":"Brahma Chaitanya","lng":73.8284,"lat":18.4676,"routeCount":3},{"id":"652","name":"Jadhav Nagar Lane No 11","lng":73.824501,"lat":18.4666,"routeCount":3},{"id":"653","name":"Vadgaon Budruk","lng":73.822998,"lat":18.466801,"routeCount":3},{"id":"654","name":"Vadgaon Budruk Stand","lng":73.822098,"lat":18.4674,"routeCount":5},{"id":"655","name":"Goyal Ganga Society","lng":73.822998,"lat":18.470301,"routeCount":6},{"id":"656","name":"Vadgaon Budruk Stand","lng":73.821899,"lat":18.467501,"routeCount":5},{"id":"657","name":"Bageshree Kalashree Society Nanded City","lng":73.775917,"lat":18.456028,"routeCount":1},{"id":"658","name":"Ingvalevasti Nanded City","lng":73.785522,"lat":18.459543,"routeCount":1},{"id":"659","name":"Walhekar Corner Nanded City","lng":73.786354,"lat":18.460026,"routeCount":1},{"id":"660","name":"D Mart Nanded City","lng":73.786797,"lat":18.4592,"routeCount":1},{"id":"661","name":"Shahu Colony","lng":73.790398,"lat":18.4548,"routeCount":1},{"id":"662","name":"Panyachi Taki Nanded","lng":73.792099,"lat":18.454,"routeCount":1},{"id":"663","name":"Savali Dhaba","lng":73.794601,"lat":18.4545,"routeCount":1},{"id":"664","name":"Nanded Phata","lng":73.796898,"lat":18.454901,"routeCount":8},{"id":"665","name":"Nanded City","lng":73.801399,"lat":18.457001,"routeCount":9},{"id":"666","name":"Mate Pat","lng":73.804497,"lat":18.4575,"routeCount":8},{"id":"667","name":"Lokmat","lng":73.806801,"lat":18.457701,"routeCount":9},{"id":"668","name":"Lagad Mala","lng":73.808197,"lat":18.4583,"routeCount":9},{"id":"669","name":"Swargate Natraj Stand","lng":73.858109,"lat":18.499514,"routeCount":4},{"id":"670","name":"Dhayari Phata","lng":73.812798,"lat":18.4608,"routeCount":12},{"id":"671","name":"Lagad Mala","lng":73.808899,"lat":18.458401,"routeCount":10},{"id":"672","name":"Mate Pat","lng":73.8041,"lat":18.457199,"routeCount":10},{"id":"673","name":"Nanded City","lng":73.801399,"lat":18.4569,"routeCount":10},{"id":"674","name":"Nanded Phata","lng":73.796799,"lat":18.4548,"routeCount":9},{"id":"675","name":"Panyachi Taki Nanded","lng":73.794601,"lat":18.4545,"routeCount":1},{"id":"676","name":"Shahu Colony","lng":73.790199,"lat":18.4548,"routeCount":1},{"id":"677","name":"D Mart Nanded City","lng":73.786301,"lat":18.459499,"routeCount":1},{"id":"678","name":"Sinhagad College Charvad Vasti","lng":73.835701,"lat":18.459101,"routeCount":1},{"id":"679","name":"Datta Mandir Sinhagad College","lng":73.836304,"lat":18.4622,"routeCount":1},{"id":"680","name":"Sinhagad College Gate","lng":73.835098,"lat":18.465099,"routeCount":1},{"id":"681","name":"Bhansali Complex","lng":73.830902,"lat":18.4699,"routeCount":1},{"id":"682","name":"Aanna Bhau Sathe Chowk","lng":73.826401,"lat":18.4716,"routeCount":1},{"id":"683","name":"Tukai Nagar","lng":73.825897,"lat":18.4729,"routeCount":1},{"id":"684","name":"Sanskrut National School","lng":73.827698,"lat":18.475,"routeCount":1},{"id":"685","name":"Ganesh Colony","lng":73.830101,"lat":18.475401,"routeCount":1},{"id":"686","name":"Mahadev Nagar","lng":73.832001,"lat":18.478001,"routeCount":1},{"id":"687","name":"Aanand Vihar Gate No 2","lng":73.832802,"lat":18.4799,"routeCount":1},{"id":"688","name":"Aanand Vihar Gate No 1","lng":73.832199,"lat":18.481701,"routeCount":1},{"id":"689","name":"Rajivgandhi Vasahat","lng":73.8312,"lat":18.4825,"routeCount":1},{"id":"690","name":"Hdfc Bank Vithalwadi","lng":73.827797,"lat":18.483801,"routeCount":1},{"id":"691","name":"Charholigaon","lng":73.907799,"lat":18.6535,"routeCount":6},{"id":"692","name":"Mhasoba Chowk Charholi","lng":73.901703,"lat":18.655701,"routeCount":4},{"id":"693","name":"Dabhade Vasti Charholi","lng":73.899101,"lat":18.657101,"routeCount":4},{"id":"694","name":"Vitbhatti Charholi","lng":73.896896,"lat":18.658501,"routeCount":4},{"id":"695","name":"Tapkir Nagar Rahatni","lng":73.784386,"lat":18.612553,"routeCount":9},{"id":"696","name":"Azad Nagar Charholi","lng":73.892403,"lat":18.6607,"routeCount":4},{"id":"697","name":"Wagheshwarwadi Charholi","lng":73.889702,"lat":18.6612,"routeCount":4},{"id":"698","name":"Charholi Phata","lng":73.886497,"lat":18.660801,"routeCount":23},{"id":"699","name":"Choviswadi Phata","lng":73.885902,"lat":18.658001,"routeCount":24},{"id":"700","name":"Vadmukhwadi Phata","lng":73.884499,"lat":18.654699,"routeCount":23},{"id":"701","name":"Sankalp Garden Alandi Road","lng":73.881897,"lat":18.650101,"routeCount":23},{"id":"702","name":"Balaji Mandir Alandi Road","lng":73.8806,"lat":18.646299,"routeCount":25},{"id":"703","name":"Thorya Paduka Temple","lng":73.876999,"lat":18.6404,"routeCount":24},{"id":"704","name":"Mauli Nagar Alandi Road","lng":73.874802,"lat":18.636999,"routeCount":23},{"id":"705","name":"Magzine","lng":73.87487,"lat":18.632874,"routeCount":28},{"id":"706","name":"Datta Nagar Alandi Road","lng":73.874298,"lat":18.6224,"routeCount":15},{"id":"707","name":"Parande Nagar","lng":73.874199,"lat":18.618,"routeCount":16},{"id":"708","name":"Dighi","lng":73.873001,"lat":18.6136,"routeCount":16},{"id":"709","name":"Ait College","lng":73.873398,"lat":18.6071,"routeCount":16},{"id":"710","name":"Wireless Colony","lng":73.873199,"lat":18.5993,"routeCount":15},{"id":"711","name":"Ganesh Nagar Alandi Road","lng":73.873398,"lat":18.5977,"routeCount":18},{"id":"712","name":"Parade Ground Alandi Road","lng":73.874397,"lat":18.591,"routeCount":18},{"id":"713","name":"Mhaske Vasti","lng":73.875397,"lat":18.585899,"routeCount":16},{"id":"714","name":"Pathan Baba Darga","lng":73.875198,"lat":18.582701,"routeCount":18},{"id":"715","name":"Kalas","lng":73.876404,"lat":18.58,"routeCount":18},{"id":"716","name":"Rd Colony","lng":73.876602,"lat":18.5769,"routeCount":18},{"id":"717","name":"Vishrantwadi Alandi Road","lng":73.877502,"lat":18.5741,"routeCount":17},{"id":"718","name":"Sathe Biscuit Brt","lng":73.878899,"lat":18.5704,"routeCount":12},{"id":"719","name":"Mental Hospital","lng":73.878601,"lat":18.566299,"routeCount":13},{"id":"720","name":"Phule Nagar","lng":73.876404,"lat":18.5597,"routeCount":13},{"id":"721","name":"Home Gaurd","lng":73.875099,"lat":18.556,"routeCount":11},{"id":"722","name":"Ambedkar Society","lng":73.873703,"lat":18.552799,"routeCount":12},{"id":"723","name":"Deccan College Corner","lng":73.871902,"lat":18.549999,"routeCount":8},{"id":"724","name":"Sapras Post","lng":73.865196,"lat":18.552601,"routeCount":15},{"id":"725","name":"Holkar Pul Corner","lng":73.859703,"lat":18.5567,"routeCount":15},{"id":"726","name":"Pachwad","lng":73.8592,"lat":18.5541,"routeCount":7},{"id":"727","name":"Mula Road","lng":73.855499,"lat":18.5504,"routeCount":11},{"id":"728","name":"Poultry Farm Mumbai Road","lng":73.851898,"lat":18.5474,"routeCount":26},{"id":"729","name":"Mariaai Gate Navin St Stand","lng":73.8517,"lat":18.5431,"routeCount":29},{"id":"730","name":"Wakdewadi","lng":73.850998,"lat":18.539499,"routeCount":31},{"id":"731","name":"Labour Office","lng":73.851898,"lat":18.5345,"routeCount":32},{"id":"732","name":"Patil Estate","lng":73.854301,"lat":18.531401,"routeCount":27},{"id":"733","name":"Ma Na Pa Daphale Garage","lng":73.852699,"lat":18.5236,"routeCount":5},{"id":"734","name":"Lokmangal","lng":73.8508,"lat":18.5301,"routeCount":31},{"id":"735","name":"Patil Estate","lng":73.853798,"lat":18.531401,"routeCount":29},{"id":"736","name":"Labour Office","lng":73.851402,"lat":18.534599,"routeCount":34},{"id":"737","name":"Wakdewadi","lng":73.850601,"lat":18.539101,"routeCount":33},{"id":"738","name":"Mariaai Gate Navin St Stand","lng":73.851501,"lat":18.5434,"routeCount":30},{"id":"739","name":"Poultry Farm Mumbai Road","lng":73.851501,"lat":18.547899,"routeCount":29},{"id":"740","name":"Mula Road","lng":73.855202,"lat":18.5499,"routeCount":10},{"id":"741","name":"Holkar Pul Corner","lng":73.858803,"lat":18.5569,"routeCount":14},{"id":"742","name":"Hanuman Mandir Sapras Road","lng":73.872398,"lat":18.5543,"routeCount":1},{"id":"743","name":"Saibaba Mandir Sapras Road","lng":73.873299,"lat":18.554701,"routeCount":1},{"id":"744","name":"Home Gaurd","lng":73.875198,"lat":18.5562,"routeCount":12},{"id":"745","name":"Phule Nagar","lng":73.876404,"lat":18.5599,"routeCount":10},{"id":"746","name":"Mental Hospital","lng":73.878799,"lat":18.5665,"routeCount":12},{"id":"747","name":"Sathe Biscuit Brt","lng":73.878899,"lat":18.570601,"routeCount":11},{"id":"748","name":"Vishrantwadi Alandi Road","lng":73.877197,"lat":18.5742,"routeCount":16},{"id":"749","name":"Rd Colony","lng":73.876404,"lat":18.577,"routeCount":16},{"id":"750","name":"Kalas","lng":73.876099,"lat":18.580099,"routeCount":14},{"id":"751","name":"Pathan Baba Darga","lng":73.875,"lat":18.582899,"routeCount":17},{"id":"752","name":"Mhaske Vasti","lng":73.875099,"lat":18.5865,"routeCount":16},{"id":"753","name":"Parade Ground Alandi Road","lng":73.874298,"lat":18.590799,"routeCount":17},{"id":"754","name":"Ganesh Nagar Alandi Road","lng":73.873199,"lat":18.5975,"routeCount":13},{"id":"755","name":"Wireless Colony","lng":73.873001,"lat":18.5994,"routeCount":15},{"id":"756","name":"Ait College","lng":73.873299,"lat":18.606701,"routeCount":13},{"id":"757","name":"Dighi","lng":73.872803,"lat":18.6138,"routeCount":16},{"id":"758","name":"Parande Nagar","lng":73.874001,"lat":18.618,"routeCount":15},{"id":"759","name":"Datta Nagar Alandi Road","lng":73.8741,"lat":18.622,"routeCount":15},{"id":"760","name":"Charholigaon","lng":73.9067,"lat":18.6528,"routeCount":3},{"id":"761","name":"Alandi","lng":73.897202,"lat":18.6747,"routeCount":29},{"id":"762","name":"St Stand Alandi","lng":73.892502,"lat":18.6723,"routeCount":25},{"id":"763","name":"Dehu Phata","lng":73.891602,"lat":18.670799,"routeCount":25},{"id":"764","name":"Kalewadi Pump","lng":73.890198,"lat":18.667801,"routeCount":21},{"id":"765","name":"Kate Colony Alandi Road","lng":73.889198,"lat":18.666201,"routeCount":24},{"id":"766","name":"Sapras Post","lng":73.8647,"lat":18.552601,"routeCount":14},{"id":"767","name":"Deccan College Corner","lng":73.871803,"lat":18.5499,"routeCount":7},{"id":"768","name":"Ambedkar Society","lng":73.873703,"lat":18.552999,"routeCount":11},{"id":"769","name":"Kate Colony Alandi Road","lng":73.889,"lat":18.666401,"routeCount":22},{"id":"770","name":"Kalewadi Pump","lng":73.890198,"lat":18.6682,"routeCount":22},{"id":"771","name":"St Stand Alandi","lng":73.892799,"lat":18.672899,"routeCount":25},{"id":"772","name":"Kasarwadi Railway Station","lng":73.820702,"lat":18.6077,"routeCount":2},{"id":"773","name":"Sarita Sargam Society","lng":73.821701,"lat":18.6045,"routeCount":2},{"id":"774","name":"Smashan Bhumi Kasarwadi","lng":73.822304,"lat":18.6022,"routeCount":2},{"id":"775","name":"H Kshetriya Karyalay","lng":73.821701,"lat":18.6003,"routeCount":2},{"id":"776","name":"Datta Mandir Srushti Chowk","lng":73.820099,"lat":18.598801,"routeCount":2},{"id":"777","name":"Srushti Chowk","lng":73.817101,"lat":18.596701,"routeCount":12},{"id":"778","name":"Kinara Hotel","lng":73.8321,"lat":18.575001,"routeCount":4},{"id":"779","name":"Bopodi Khadki Road","lng":73.838501,"lat":18.5714,"routeCount":10},{"id":"780","name":"Manajibaug","lng":73.841698,"lat":18.569799,"routeCount":15},{"id":"781","name":"Alegaonkar Shala","lng":73.845398,"lat":18.5681,"routeCount":15},{"id":"782","name":"Khadki Bazar","lng":73.848701,"lat":18.566401,"routeCount":16},{"id":"783","name":"Power House Khadki","lng":73.850899,"lat":18.564699,"routeCount":14},{"id":"784","name":"Ammunition Factory Road","lng":73.852798,"lat":18.5618,"routeCount":12},{"id":"785","name":"Methodist Church","lng":73.854797,"lat":18.558399,"routeCount":12},{"id":"786","name":"Surgeon Quarters","lng":73.8564,"lat":18.555,"routeCount":4},{"id":"787","name":"Gadikhana Shivaji Road","lng":73.857803,"lat":18.5121,"routeCount":16},{"id":"788","name":"Shahu Chowk","lng":73.858002,"lat":18.5091,"routeCount":20},{"id":"789","name":"Shivaji Maratha High School","lng":73.858597,"lat":18.5058,"routeCount":15},{"id":"790","name":"Bank Of Baroda Marketyard","lng":73.860397,"lat":18.489401,"routeCount":24},{"id":"791","name":"Bhaji Market Market Yard","lng":73.863899,"lat":18.489401,"routeCount":22},{"id":"792","name":"Shivaji Maharaj Putla Marketyard","lng":73.868301,"lat":18.489201,"routeCount":22},{"id":"793","name":"Godown Gultekdi","lng":73.870499,"lat":18.4877,"routeCount":31},{"id":"794","name":"Marketyard Depot","lng":73.871597,"lat":18.483601,"routeCount":33},{"id":"795","name":"Marketyard Depot","lng":73.871498,"lat":18.483601,"routeCount":33},{"id":"796","name":"Godown Gultekdi","lng":73.870598,"lat":18.487801,"routeCount":26},{"id":"797","name":"Shivaji Maharaj Putla Marketyard","lng":73.867798,"lat":18.4893,"routeCount":22},{"id":"798","name":"Bhaji Market Market Yard","lng":73.864197,"lat":18.4895,"routeCount":24},{"id":"799","name":"Bank Of Baroda Marketyard","lng":73.859398,"lat":18.4895,"routeCount":24},{"id":"800","name":"Surgeon Quarters","lng":73.856201,"lat":18.554899,"routeCount":4},{"id":"801","name":"Ammunition Factory Road","lng":73.852699,"lat":18.5616,"routeCount":12},{"id":"802","name":"Power House Khadki","lng":73.850899,"lat":18.564501,"routeCount":15},{"id":"803","name":"Khadki Bazar","lng":73.848198,"lat":18.5665,"routeCount":16},{"id":"804","name":"Alegaonkar Shala","lng":73.8451,"lat":18.568199,"routeCount":13},{"id":"805","name":"Manajibaug","lng":73.8414,"lat":18.569901,"routeCount":15},{"id":"806","name":"Bopodi","lng":73.838501,"lat":18.571199,"routeCount":10},{"id":"807","name":"Datta Mandir Srushti Chowk","lng":73.819901,"lat":18.598801,"routeCount":2},{"id":"808","name":"H Kshetriya Karyalay","lng":73.821503,"lat":18.6003,"routeCount":2},{"id":"809","name":"Smashan Bhumi Kasarwadi","lng":73.822098,"lat":18.6022,"routeCount":2},{"id":"810","name":"Sarita Sargam Society","lng":73.821602,"lat":18.604401,"routeCount":2},{"id":"811","name":"Kasarwadi Railway Station","lng":73.820801,"lat":18.6077,"routeCount":2},{"id":"812","name":"Endurance Systems Chakan Mahalunge","lng":73.806786,"lat":18.742357,"routeCount":5},{"id":"813","name":"Sigma Square","lng":73.804756,"lat":18.743143,"routeCount":6},{"id":"814","name":"Suzlon Company","lng":73.801003,"lat":18.7428,"routeCount":2},{"id":"815","name":"Harman Company","lng":73.794998,"lat":18.742599,"routeCount":1},{"id":"816","name":"Rilaybal Company","lng":73.792801,"lat":18.743799,"routeCount":1},{"id":"817","name":"Hp Chwok Talegaon Dabhade Road","lng":73.788902,"lat":18.7463,"routeCount":7},{"id":"818","name":"Hp Petrol Pump Talegaon Dabhade Road","lng":73.792,"lat":18.749599,"routeCount":1},{"id":"819","name":"Om Logistic Company","lng":73.794296,"lat":18.7516,"routeCount":1},{"id":"820","name":"Lumax Company Gate No. 2","lng":73.798203,"lat":18.753599,"routeCount":8},{"id":"821","name":"Bajaj Company","lng":73.802696,"lat":18.754601,"routeCount":1},{"id":"822","name":"Midc Phata Chakan Road","lng":73.805496,"lat":18.7547,"routeCount":8},{"id":"823","name":"Mhalunge Phata Chakan","lng":73.808601,"lat":18.7549,"routeCount":5},{"id":"824","name":"Maharashtra Vajan Kata","lng":73.811401,"lat":18.756201,"routeCount":5},{"id":"825","name":"Lumax Company","lng":73.818298,"lat":18.7589,"routeCount":5},{"id":"826","name":"Kalyan Hotel","lng":73.822899,"lat":18.759701,"routeCount":5},{"id":"827","name":"Kores Company","lng":73.826401,"lat":18.760099,"routeCount":5},{"id":"828","name":"Ibp Pump","lng":73.829102,"lat":18.7593,"routeCount":5},{"id":"829","name":"Pancharatna Complex","lng":73.835297,"lat":18.7589,"routeCount":5},{"id":"830","name":"Sara City Mns Chowk","lng":73.839699,"lat":18.7579,"routeCount":7},{"id":"831","name":"Kharabwadi","lng":73.841522,"lat":18.757555,"routeCount":7},{"id":"832","name":"Sanjivani Hospital","lng":73.841103,"lat":18.7577,"routeCount":4},{"id":"833","name":"Ranubaimala","lng":73.843933,"lat":18.757118,"routeCount":5},{"id":"834","name":"Sherya Lawns","lng":73.851799,"lat":18.755501,"routeCount":5},{"id":"835","name":"Chakan Talegaon Chowk","lng":73.859131,"lat":18.755547,"routeCount":13},{"id":"836","name":"Balaji Petrol Pump","lng":73.860001,"lat":18.7484,"routeCount":10},{"id":"837","name":"Vijay Oil Mill","lng":73.8592,"lat":18.741199,"routeCount":10},{"id":"838","name":"Gavte Vasti Petrol Pump","lng":73.857803,"lat":18.7377,"routeCount":10},{"id":"839","name":"Alandi Phata","lng":73.8563,"lat":18.7314,"routeCount":10},{"id":"840","name":"Spicer India Company","lng":73.854202,"lat":18.7264,"routeCount":8},{"id":"841","name":"Kalyani Forge Chakan Road","lng":73.853302,"lat":18.7244,"routeCount":9},{"id":"842","name":"Sandesh Model Colony","lng":73.850502,"lat":18.7194,"routeCount":9},{"id":"843","name":"Kuruli Phata","lng":73.848427,"lat":18.715065,"routeCount":9},{"id":"844","name":"Barge Vasti","lng":73.848602,"lat":18.710699,"routeCount":9},{"id":"845","name":"Gaikwad Vasti Nasik Road","lng":73.848198,"lat":18.7064,"routeCount":9},{"id":"846","name":"Chimbli Phata","lng":73.847801,"lat":18.696199,"routeCount":9},{"id":"847","name":"Moshi Toll Naka","lng":73.846802,"lat":18.686399,"routeCount":9},{"id":"848","name":"Nageshwar Vidyalay Moshi","lng":73.848,"lat":18.681601,"routeCount":9},{"id":"849","name":"Moshigaon","lng":73.849899,"lat":18.6772,"routeCount":12},{"id":"850","name":"Bankar Vasti","lng":73.848396,"lat":18.671,"routeCount":10},{"id":"851","name":"Borate Vasti Nasik Road","lng":73.848801,"lat":18.665701,"routeCount":10},{"id":"852","name":"Moshi Jakat Naka","lng":73.848503,"lat":18.6609,"routeCount":10},{"id":"853","name":"Sainath Hospital Moshi","lng":73.848999,"lat":18.655899,"routeCount":10},{"id":"854","name":"Gandharva Nagari","lng":73.850304,"lat":18.650499,"routeCount":10},{"id":"855","name":"Vakhar Mahamandal Bhosari","lng":73.8507,"lat":18.646799,"routeCount":8},{"id":"856","name":"Panjarpol","lng":73.850601,"lat":18.6437,"routeCount":10},{"id":"857","name":"E Kshetriya Karyalay","lng":73.8507,"lat":18.6415,"routeCount":10},{"id":"858","name":"Sadguru Nagar","lng":73.849998,"lat":18.635401,"routeCount":13},{"id":"859","name":"Bhosari Depot","lng":73.850403,"lat":18.631201,"routeCount":10},{"id":"860","name":"Dhawde Vasti","lng":73.851303,"lat":18.6294,"routeCount":10},{"id":"861","name":"Bhosari Pmt Chowk","lng":73.851402,"lat":18.622299,"routeCount":23},{"id":"862","name":"Atlas Company","lng":73.850403,"lat":18.6187,"routeCount":27},{"id":"863","name":"Century Enka Colony","lng":73.8452,"lat":18.6159,"routeCount":16},{"id":"864","name":"Shitalbaug","lng":73.843376,"lat":18.617701,"routeCount":1},{"id":"865","name":"Landewadi","lng":73.840797,"lat":18.619801,"routeCount":29},{"id":"866","name":"Philips Company Bhosari","lng":73.838097,"lat":18.621099,"routeCount":9},{"id":"867","name":"Tulsi Chemical","lng":73.834198,"lat":18.625601,"routeCount":10},{"id":"868","name":"Jayanand Khira","lng":73.831902,"lat":18.627899,"routeCount":10},{"id":"869","name":"Abhi Chemical","lng":73.8302,"lat":18.6299,"routeCount":9},{"id":"870","name":"Power House Midc","lng":73.827904,"lat":18.632401,"routeCount":9},{"id":"871","name":"C Kshetriya Karyalay","lng":73.826202,"lat":18.6315,"routeCount":3},{"id":"872","name":"Jyoti English School","lng":73.824097,"lat":18.6306,"routeCount":1},{"id":"873","name":"Ganesh Mandir Nehru Nagar","lng":73.821297,"lat":18.630199,"routeCount":9},{"id":"874","name":"Nehru Nagar Corner","lng":73.82,"lat":18.6297,"routeCount":5},{"id":"875","name":"Ha Corner","lng":73.815598,"lat":18.6285,"routeCount":13},{"id":"876","name":"Kamgar Nagar","lng":73.812599,"lat":18.628901,"routeCount":13},{"id":"877","name":"Mahindra Company","lng":73.807503,"lat":18.628401,"routeCount":13},{"id":"878","name":"Pimpri Road","lng":73.806396,"lat":18.627001,"routeCount":21},{"id":"879","name":"Kamgar Nagar","lng":73.812668,"lat":18.629032,"routeCount":13},{"id":"880","name":"Ha Corner","lng":73.815598,"lat":18.628614,"routeCount":14},{"id":"881","name":"Nehru Nagar Corner","lng":73.819298,"lat":18.629601,"routeCount":6},{"id":"882","name":"Ganesh Mandir Nehru Nagar","lng":73.819901,"lat":18.6297,"routeCount":9},{"id":"883","name":"Jyoti English School","lng":73.824097,"lat":18.630699,"routeCount":9},{"id":"884","name":"C Kshetriya Karyalay","lng":73.826202,"lat":18.631701,"routeCount":9},{"id":"885","name":"Jayanand Khira","lng":73.8321,"lat":18.628,"routeCount":10},{"id":"886","name":"Philips Company Bhosari","lng":73.837997,"lat":18.621201,"routeCount":9},{"id":"887","name":"Landewadi","lng":73.840797,"lat":18.6199,"routeCount":27},{"id":"888","name":"Shitalbaug","lng":73.843697,"lat":18.617599,"routeCount":23},{"id":"889","name":"Atlas Company","lng":73.849998,"lat":18.618601,"routeCount":18},{"id":"890","name":"Bhosari Chakan Road","lng":73.851303,"lat":18.6241,"routeCount":10},{"id":"891","name":"Dhawde Vasti","lng":73.8508,"lat":18.6299,"routeCount":14},{"id":"892","name":"Bhosari Depot","lng":73.849899,"lat":18.632401,"routeCount":12},{"id":"893","name":"Sadguru Nagar","lng":73.8498,"lat":18.6355,"routeCount":14},{"id":"894","name":"E Kshetriya Karyalay","lng":73.850601,"lat":18.6416,"routeCount":12},{"id":"895","name":"Panjarpol","lng":73.850502,"lat":18.6437,"routeCount":12},{"id":"896","name":"Vakhar Mahamandal Bhosari","lng":73.850403,"lat":18.6469,"routeCount":13},{"id":"897","name":"Gandharva Nagari","lng":73.850197,"lat":18.650299,"routeCount":12},{"id":"898","name":"Sainath Hospital Moshi","lng":73.848801,"lat":18.655701,"routeCount":12},{"id":"899","name":"Moshi Jakat Naka","lng":73.848396,"lat":18.6609,"routeCount":12},{"id":"900","name":"Borate Vasti Nasik Road","lng":73.848602,"lat":18.665899,"routeCount":12},{"id":"901","name":"Bankar Vasti","lng":73.848297,"lat":18.6707,"routeCount":12},{"id":"902","name":"Nageshwar Vidyalay Moshi","lng":73.847794,"lat":18.681793,"routeCount":2},{"id":"903","name":"Nageshwar Vidyalay Moshi","lng":73.8479,"lat":18.681601,"routeCount":9},{"id":"904","name":"Moshi Toll Naka","lng":73.84668,"lat":18.686022,"routeCount":11},{"id":"905","name":"Chimbli Phata","lng":73.847504,"lat":18.6959,"routeCount":11},{"id":"906","name":"Gaikwad Vasti Nasik Road","lng":73.848099,"lat":18.7066,"routeCount":11},{"id":"907","name":"Barge Vasti","lng":73.848503,"lat":18.7106,"routeCount":11},{"id":"908","name":"Kuruli Phata","lng":73.848297,"lat":18.7153,"routeCount":11},{"id":"909","name":"Sandesh Model Colony","lng":73.850403,"lat":18.7197,"routeCount":11},{"id":"910","name":"Kalyani Forge Chakan Road","lng":73.852402,"lat":18.7232,"routeCount":11},{"id":"911","name":"Spicer India Company","lng":73.854103,"lat":18.726601,"routeCount":10},{"id":"912","name":"Alandi Phata","lng":73.8564,"lat":18.732401,"routeCount":12},{"id":"913","name":"Gavte Vasti Petrol Pump","lng":73.857803,"lat":18.7381,"routeCount":12},{"id":"914","name":"Vijay Oil Mill","lng":73.859001,"lat":18.741501,"routeCount":12},{"id":"915","name":"Balaji Petrol Pump","lng":73.859703,"lat":18.7477,"routeCount":12},{"id":"916","name":"Chakan Talegaon Chowk","lng":73.858871,"lat":18.755548,"routeCount":14},{"id":"917","name":"Sherya Lawns","lng":73.853706,"lat":18.755203,"routeCount":5},{"id":"918","name":"Ranubaimala","lng":73.848801,"lat":18.756001,"routeCount":5},{"id":"919","name":"Sanjivani Hospital","lng":73.842285,"lat":18.757374,"routeCount":6},{"id":"920","name":"Pancharatna Complex","lng":73.837402,"lat":18.7584,"routeCount":5},{"id":"921","name":"Ibp Pump","lng":73.829102,"lat":18.759199,"routeCount":5},{"id":"922","name":"Kores Company","lng":73.826103,"lat":18.759899,"routeCount":5},{"id":"923","name":"Kalyan Hotel","lng":73.822899,"lat":18.759399,"routeCount":5},{"id":"924","name":"Lumax Company","lng":73.817596,"lat":18.7586,"routeCount":5},{"id":"925","name":"Maharashtra Vajan Kata","lng":73.811096,"lat":18.756001,"routeCount":5},{"id":"926","name":"Mhalunge Phata Chakan","lng":73.808998,"lat":18.7551,"routeCount":5},{"id":"927","name":"Midc Phata Chakan","lng":73.805702,"lat":18.753901,"routeCount":1},{"id":"928","name":"Badway Company","lng":73.806396,"lat":18.749599,"routeCount":6},{"id":"929","name":"Savarna Fabricators","lng":73.806503,"lat":18.747601,"routeCount":4},{"id":"930","name":"Endurance Systems Chakan Mahalunge","lng":73.8069,"lat":18.742599,"routeCount":3},{"id":"931","name":"Bhosari Terminal","lng":73.851601,"lat":18.624901,"routeCount":13},{"id":"932","name":"Century Enka Colony","lng":73.847397,"lat":18.6159,"routeCount":25},{"id":"933","name":"Optonica Company","lng":73.842003,"lat":18.618,"routeCount":9},{"id":"934","name":"Philips Company Bhosari","lng":73.836601,"lat":18.620501,"routeCount":19},{"id":"935","name":"Midc Bhosari","lng":73.8302,"lat":18.620899,"routeCount":19},{"id":"936","name":"Bhosari Police Station","lng":73.827271,"lat":18.618202,"routeCount":14},{"id":"937","name":"Cirt","lng":73.824402,"lat":18.614,"routeCount":15},{"id":"938","name":"Nashik Phata Bhosari Road","lng":73.822998,"lat":18.6099,"routeCount":15},{"id":"939","name":"Kasarwadi","lng":73.825897,"lat":18.602699,"routeCount":25},{"id":"940","name":"Atlas Capco","lng":73.829002,"lat":18.5959,"routeCount":23},{"id":"941","name":"Phugewadi Jakat Naka","lng":73.831902,"lat":18.5898,"routeCount":23},{"id":"942","name":"Phugewadi","lng":73.833199,"lat":18.5863,"routeCount":24},{"id":"943","name":"Dapodi","lng":73.834602,"lat":18.5809,"routeCount":26},{"id":"944","name":"Bopodi","lng":73.837997,"lat":18.5704,"routeCount":20},{"id":"945","name":"Gopi Chal","lng":73.838997,"lat":18.567499,"routeCount":20},{"id":"946","name":"Factory Hospital","lng":73.845497,"lat":18.5585,"routeCount":18},{"id":"947","name":"Khadki Post","lng":73.847397,"lat":18.556101,"routeCount":19},{"id":"948","name":"Raja Bungalow","lng":73.849602,"lat":18.5522,"routeCount":18},{"id":"949","name":"Ma Na Pa Main Stand","lng":73.8535,"lat":18.523199,"routeCount":8},{"id":"950","name":"Raja Bungalow","lng":73.849503,"lat":18.552,"routeCount":18},{"id":"951","name":"Khadki Post","lng":73.847397,"lat":18.555799,"routeCount":18},{"id":"952","name":"Factory Hospital","lng":73.845398,"lat":18.558399,"routeCount":18},{"id":"953","name":"Gopi Chal","lng":73.838799,"lat":18.5672,"routeCount":20},{"id":"954","name":"Bopodi","lng":73.8377,"lat":18.570299,"routeCount":17},{"id":"955","name":"Dapodi","lng":73.834396,"lat":18.580999,"routeCount":23},{"id":"956","name":"Phugewadi","lng":73.833504,"lat":18.5846,"routeCount":24},{"id":"957","name":"Phugewadi Jakat Naka","lng":73.831596,"lat":18.5898,"routeCount":27},{"id":"958","name":"Atlas Capco","lng":73.828903,"lat":18.5958,"routeCount":27},{"id":"959","name":"Kasarwadi","lng":73.8255,"lat":18.6028,"routeCount":24},{"id":"960","name":"Bhosari Police Station","lng":73.827103,"lat":18.618299,"routeCount":15},{"id":"961","name":"Midc Bhosari","lng":73.830101,"lat":18.6208,"routeCount":16},{"id":"962","name":"Philips Company Bhosari","lng":73.836601,"lat":18.620701,"routeCount":18},{"id":"963","name":"Shitalbaug","lng":73.844002,"lat":18.617399,"routeCount":8},{"id":"964","name":"Bhosari Terminal","lng":73.851196,"lat":18.624001,"routeCount":12},{"id":"965","name":"Pimpri Depot","lng":73.825302,"lat":18.628599,"routeCount":3},{"id":"966","name":"Nehru Nagar Corner","lng":73.819603,"lat":18.629101,"routeCount":17},{"id":"967","name":"Mahesh Nagar","lng":73.819199,"lat":18.625799,"routeCount":12},{"id":"968","name":"Ycm Hospital","lng":73.819778,"lat":18.620869,"routeCount":16},{"id":"969","name":"Sant Tukaram Nagar","lng":73.817902,"lat":18.620701,"routeCount":10},{"id":"970","name":"Amar Smruti Vallabh Nagar","lng":73.817398,"lat":18.618099,"routeCount":9},{"id":"971","name":"Vallabh Nagar St Stand","lng":73.817101,"lat":18.616199,"routeCount":8},{"id":"972","name":"Vallabh Nagar Brt","lng":73.816101,"lat":18.614401,"routeCount":11},{"id":"973","name":"Nashik Phata","lng":73.821297,"lat":18.6082,"routeCount":18},{"id":"974","name":"Nashik Phata","lng":73.8209,"lat":18.608299,"routeCount":17},{"id":"975","name":"Vallabh Nagar St Stand","lng":73.816902,"lat":18.6161,"routeCount":12},{"id":"976","name":"Amar Smruti Vallabh Nagar","lng":73.8172,"lat":18.618,"routeCount":13},{"id":"977","name":"Sant Tukaram Nagar","lng":73.817703,"lat":18.620701,"routeCount":13},{"id":"978","name":"Ycm Hospital","lng":73.818398,"lat":18.6234,"routeCount":16},{"id":"979","name":"Mahesh Nagar","lng":73.819099,"lat":18.625999,"routeCount":15},{"id":"980","name":"Nehru Nagar Corner","lng":73.819397,"lat":18.6292,"routeCount":17},{"id":"981","name":"Jyoti English School","lng":73.823997,"lat":18.630501,"routeCount":9},{"id":"982","name":"Mahindra Company","lng":73.807602,"lat":18.628401,"routeCount":12},{"id":"983","name":"Pimpri Road","lng":73.806396,"lat":18.626801,"routeCount":12},{"id":"984","name":"Kundan Hotel Pimpri","lng":73.805496,"lat":18.625799,"routeCount":21},{"id":"985","name":"Gokul Hotel","lng":73.803299,"lat":18.624599,"routeCount":21},{"id":"986","name":"Bhat Nagar","lng":73.797699,"lat":18.625099,"routeCount":21},{"id":"987","name":"Devi Link","lng":73.794296,"lat":18.629499,"routeCount":4},{"id":"988","name":"Gawade Petrol Pump","lng":73.792198,"lat":18.630199,"routeCount":7},{"id":"989","name":"Bakwoulf Colony","lng":73.790199,"lat":18.6306,"routeCount":6},{"id":"990","name":"Manik Colony","lng":73.786797,"lat":18.6294,"routeCount":6},{"id":"991","name":"Darshan Hall","lng":73.786186,"lat":18.629007,"routeCount":10},{"id":"992","name":"Kalika Mata Mandir","lng":73.7855,"lat":18.628599,"routeCount":12},{"id":"993","name":"Chinchwadgaon","lng":73.782166,"lat":18.627678,"routeCount":20},{"id":"994","name":"Chaphekar Chowk","lng":73.780098,"lat":18.630199,"routeCount":29},{"id":"995","name":"Walhekarwadi Corner","lng":73.777298,"lat":18.630501,"routeCount":26},{"id":"996","name":"Chinchwade Nagar Corner","lng":73.773903,"lat":18.631201,"routeCount":7},{"id":"997","name":"Munjaba Vasahat","lng":73.771004,"lat":18.6315,"routeCount":6},{"id":"998","name":"Chinchwade Farm","lng":73.7677,"lat":18.633101,"routeCount":6},{"id":"999","name":"Aaher Garden","lng":73.764603,"lat":18.633801,"routeCount":2},{"id":"1000","name":"Walhekarwadi","lng":73.761703,"lat":18.635,"routeCount":3},{"id":"1001","name":"Petrol Pump Walhekarwadi","lng":73.758797,"lat":18.637501,"routeCount":2},{"id":"1002","name":"Hotel Rajwada","lng":73.756302,"lat":18.6409,"routeCount":2},{"id":"1004","name":"Walhekarwadi Phata","lng":73.753304,"lat":18.6432,"routeCount":6},{"id":"1005","name":"Nano Home Ravet","lng":73.751198,"lat":18.643101,"routeCount":4},{"id":"1006","name":"Ravet Pumping Station","lng":73.749603,"lat":18.643299,"routeCount":5},{"id":"1007","name":"Ravet Chowk","lng":73.744499,"lat":18.6444,"routeCount":5},{"id":"1008","name":"Bhondve Vasti Ravet","lng":73.737801,"lat":18.653,"routeCount":5},{"id":"1009","name":"Mukai Chowk","lng":73.731796,"lat":18.6604,"routeCount":6},{"id":"1010","name":"Mukai Chowk","lng":73.731796,"lat":18.6605,"routeCount":4},{"id":"1011","name":"Bhondve Vasti Ravet","lng":73.737694,"lat":18.653217,"routeCount":5},{"id":"1012","name":"Ravet Chowk","lng":73.744102,"lat":18.644699,"routeCount":4},{"id":"1013","name":"Ravet Pumping Station","lng":73.749268,"lat":18.643412,"routeCount":5},{"id":"1014","name":"Nano Home Ravet","lng":73.751297,"lat":18.643299,"routeCount":4},{"id":"1015","name":"Walhekarwadi Phata","lng":73.77607,"lat":18.62949,"routeCount":5},{"id":"1017","name":"Hotel Rajwada","lng":73.7565,"lat":18.641001,"routeCount":2},{"id":"1018","name":"Petrol Pump Walhekarwadi","lng":73.758904,"lat":18.6374,"routeCount":2},{"id":"1019","name":"Walhekarwadi","lng":73.762199,"lat":18.634899,"routeCount":3},{"id":"1020","name":"Aaher Garden","lng":73.764801,"lat":18.634001,"routeCount":2},{"id":"1021","name":"Chinchwade Farm","lng":73.767899,"lat":18.6332,"routeCount":6},{"id":"1022","name":"Munjaba Vasahat","lng":73.771301,"lat":18.631599,"routeCount":6},{"id":"1023","name":"Chinchwade Nagar Corner","lng":73.773598,"lat":18.6315,"routeCount":7},{"id":"1024","name":"Walhekarwadi Corner","lng":73.7771,"lat":18.6306,"routeCount":28},{"id":"1025","name":"Chaphekar Chowk","lng":73.781197,"lat":18.629499,"routeCount":31},{"id":"1026","name":"Darshan Hall","lng":73.786697,"lat":18.629601,"routeCount":8},{"id":"1027","name":"Elpro Company","lng":73.785004,"lat":18.632401,"routeCount":7},{"id":"1028","name":"More Prekshagruha","lng":73.787498,"lat":18.6341,"routeCount":7},{"id":"1029","name":"Lokmanya Hospital","lng":73.790001,"lat":18.636801,"routeCount":6},{"id":"1030","name":"Chinchwad Station","lng":73.794296,"lat":18.6383,"routeCount":7},{"id":"1031","name":"Empire Estate","lng":73.799004,"lat":18.6343,"routeCount":17},{"id":"1032","name":"Finolex Morwadi","lng":73.802002,"lat":18.630699,"routeCount":17},{"id":"1033","name":"Pimpri Maha Nagarpalika","lng":73.805099,"lat":18.627199,"routeCount":30},{"id":"1034","name":"Kharalwadi","lng":73.808296,"lat":18.6234,"routeCount":11},{"id":"1035","name":"Ha","lng":73.811401,"lat":18.619801,"routeCount":11},{"id":"1036","name":"Vallabh Nagar Brt","lng":73.8172,"lat":18.612499,"routeCount":10},{"id":"1037","name":"Ha","lng":73.810097,"lat":18.621,"routeCount":9},{"id":"1038","name":"Kharalwadi","lng":73.808197,"lat":18.623199,"routeCount":10},{"id":"1039","name":"Pimpri Chowk","lng":73.806396,"lat":18.626801,"routeCount":1},{"id":"1040","name":"Nigdi Bhakti Shakti","lng":73.771896,"lat":18.666,"routeCount":24},{"id":"1041","name":"Krushna Mandir Nigdi","lng":73.773697,"lat":18.6635,"routeCount":34},{"id":"1042","name":"Nigdi","lng":73.7771,"lat":18.6598,"routeCount":19},{"id":"1043","name":"Pradhikaran Corner","lng":73.778,"lat":18.6586,"routeCount":19},{"id":"1044","name":"Bajaj Auto","lng":73.782402,"lat":18.653799,"routeCount":24},{"id":"1045","name":"Akurdi Chowk","lng":73.784798,"lat":18.650999,"routeCount":30},{"id":"1046","name":"Kalbhor Nagar","lng":73.788803,"lat":18.646299,"routeCount":19},{"id":"1047","name":"Jayshree Talkies","lng":73.792297,"lat":18.6422,"routeCount":19},{"id":"1048","name":"Chinchwad Station Brt","lng":73.794403,"lat":18.639799,"routeCount":19},{"id":"1049","name":"Pimpri Maha Nagarpalika","lng":73.804802,"lat":18.627001,"routeCount":18},{"id":"1050","name":"Finolex Morwadi","lng":73.802002,"lat":18.630501,"routeCount":17},{"id":"1051","name":"Chinchwad Station Brt","lng":73.794296,"lat":18.6395,"routeCount":15},{"id":"1052","name":"Jayshree Talkies","lng":73.792198,"lat":18.641899,"routeCount":17},{"id":"1053","name":"Kalbhor Nagar","lng":73.789001,"lat":18.6457,"routeCount":19},{"id":"1054","name":"Akurdi Chowk","lng":73.784698,"lat":18.6507,"routeCount":19},{"id":"1055","name":"Bajaj Auto","lng":73.782402,"lat":18.653601,"routeCount":19},{"id":"1056","name":"Pradhikaran Corner","lng":73.778099,"lat":18.6584,"routeCount":16},{"id":"1057","name":"Nigdi","lng":73.7752,"lat":18.661301,"routeCount":36},{"id":"1058","name":"Nigdi Bhakti Shakti","lng":73.771202,"lat":18.6656,"routeCount":14},{"id":"1059","name":"Neilsoft Company Infosys Phase 3","lng":73.675896,"lat":18.588278,"routeCount":6},{"id":"1060","name":"Exabier Company","lng":73.679253,"lat":18.590086,"routeCount":4},{"id":"1061","name":"Yash Technology","lng":73.683098,"lat":18.5907,"routeCount":6},{"id":"1062","name":"Falcon Company Phase 3","lng":73.684898,"lat":18.591,"routeCount":3},{"id":"1063","name":"K P It Circule","lng":73.687302,"lat":18.592199,"routeCount":3},{"id":"1064","name":"Capgemini Company","lng":73.692039,"lat":18.597103,"routeCount":6},{"id":"1065","name":"Icz Company","lng":73.6903,"lat":18.593399,"routeCount":3},{"id":"1066","name":"Manara Company","lng":73.691299,"lat":18.5917,"routeCount":3},{"id":"1067","name":"Gangaramwadi","lng":73.692596,"lat":18.587099,"routeCount":3},{"id":"1068","name":"Gangaramwadi Circul","lng":73.694168,"lat":18.583797,"routeCount":9},{"id":"1069","name":"Dlf Company","lng":73.69603,"lat":18.584845,"routeCount":7},{"id":"1070","name":"Tata Motors","lng":73.699852,"lat":18.586962,"routeCount":3},{"id":"1071","name":"Power House Hinjawadi","lng":73.704887,"lat":18.58894,"routeCount":4},{"id":"1072","name":"Infosys Phase 2","lng":73.707703,"lat":18.5933,"routeCount":5},{"id":"1073","name":"Tata Johnson","lng":73.727997,"lat":18.5945,"routeCount":4},{"id":"1074","name":"Mezza Nine","lng":73.735397,"lat":18.593864,"routeCount":3},{"id":"1075","name":"D Mart Hinjawadi","lng":73.744301,"lat":18.591299,"routeCount":3},{"id":"1076","name":"Hinjawadi Jakat Naka","lng":73.750298,"lat":18.591,"routeCount":3},{"id":"1077","name":"Wakad Bridge","lng":73.757782,"lat":18.59137,"routeCount":4},{"id":"1078","name":"Digambar Marble Kaveri Hotel","lng":73.761414,"lat":18.581354,"routeCount":5},{"id":"1079","name":"Radha Hotel","lng":73.766449,"lat":18.568138,"routeCount":2},{"id":"1080","name":"Someshwarwadi Phata","lng":73.805901,"lat":18.5508,"routeCount":2},{"id":"1081","name":"Sanewadi Iti Road","lng":73.809502,"lat":18.553499,"routeCount":3},{"id":"1082","name":"Bodygate","lng":73.813103,"lat":18.5634,"routeCount":4},{"id":"1083","name":"Aundhgaon","lng":73.812103,"lat":18.5658,"routeCount":5},{"id":"1084","name":"Baner Phata","lng":73.8088,"lat":18.5501,"routeCount":2},{"id":"1085","name":"Radha Hotel","lng":73.764969,"lat":18.570015,"routeCount":6},{"id":"1086","name":"Digambar Marble Kaveri Hotel","lng":73.761185,"lat":18.580847,"routeCount":7},{"id":"1087","name":"Hinjawadi Jakat Naka","lng":73.750877,"lat":18.590649,"routeCount":6},{"id":"1088","name":"D Mart Hinjawadi","lng":73.74456,"lat":18.591028,"routeCount":8},{"id":"1089","name":"Bank Of Maharashtra Hinjawadi","lng":73.731461,"lat":18.593861,"routeCount":6},{"id":"1090","name":"Infosys Phase 2","lng":73.708298,"lat":18.593599,"routeCount":4},{"id":"1091","name":"Power House Hinjawadi","lng":73.705101,"lat":18.5889,"routeCount":7},{"id":"1092","name":"Gangaramwadi","lng":73.692436,"lat":18.587276,"routeCount":4},{"id":"1093","name":"Manara Company","lng":73.69149,"lat":18.591509,"routeCount":3},{"id":"1094","name":"Icz Company","lng":73.690102,"lat":18.593,"routeCount":6},{"id":"1095","name":"K P It Circule","lng":73.687302,"lat":18.591999,"routeCount":5},{"id":"1096","name":"Falcon Company Phase 3","lng":73.685303,"lat":18.5909,"routeCount":5},{"id":"1097","name":"Yash Technology","lng":73.682404,"lat":18.5905,"routeCount":5},{"id":"1098","name":"Exabier Company","lng":73.679398,"lat":18.59,"routeCount":6},{"id":"1099","name":"Yantriki Bhavan","lng":73.826797,"lat":18.5791,"routeCount":1},{"id":"1100","name":"Bopodigaon","lng":73.838501,"lat":18.5714,"routeCount":3},{"id":"1101","name":"Trikonibaug","lng":73.852898,"lat":18.5634,"routeCount":3},{"id":"1102","name":"Vehicle Depot Khadki","lng":73.854797,"lat":18.5655,"routeCount":3},{"id":"1103","name":"Ammunition Stores","lng":73.8564,"lat":18.567801,"routeCount":3},{"id":"1104","name":"Ammunition Factory Gate","lng":73.856598,"lat":18.568399,"routeCount":3},{"id":"1105","name":"Arsenal Factory Gate","lng":73.856796,"lat":18.569901,"routeCount":3},{"id":"1106","name":"Ordinance Club","lng":73.8629,"lat":18.5716,"routeCount":3},{"id":"1107","name":"Mula House","lng":73.866898,"lat":18.573099,"routeCount":3},{"id":"1108","name":"Mhasoba Mandir Ammunition Factory Road","lng":73.866898,"lat":18.5693,"routeCount":3},{"id":"1109","name":"Police Line Phule Nagar","lng":73.870499,"lat":18.569099,"routeCount":3},{"id":"1110","name":"Shanti Nagar","lng":73.879402,"lat":18.5681,"routeCount":2},{"id":"1111","name":"Mental Corner","lng":73.878601,"lat":18.566299,"routeCount":2},{"id":"1112","name":"Sathe Biscuit","lng":73.878899,"lat":18.5704,"routeCount":2},{"id":"1113","name":"Bopkhel Phata","lng":73.87262,"lat":18.59733,"routeCount":4},{"id":"1114","name":"Ganesh Nagar Bopkhel","lng":73.864098,"lat":18.593599,"routeCount":4},{"id":"1115","name":"Ganesh Nagar Gali No 4","lng":73.862701,"lat":18.589399,"routeCount":3},{"id":"1116","name":"Jeevan Nagar Hospital","lng":73.861702,"lat":18.5877,"routeCount":2},{"id":"1117","name":"Ram Nagar Bopkhel","lng":73.859001,"lat":18.587601,"routeCount":4},{"id":"1118","name":"Geet Govind Lawns","lng":73.858299,"lat":18.5875,"routeCount":2},{"id":"1119","name":"Bopkhel","lng":73.854401,"lat":18.5868,"routeCount":4},{"id":"1120","name":"Bopkhel","lng":73.854401,"lat":18.586901,"routeCount":4},{"id":"1121","name":"Geet Govind Lawns","lng":73.8582,"lat":18.5875,"routeCount":4},{"id":"1122","name":"Ram Nagar Bopkhel","lng":73.8591,"lat":18.5877,"routeCount":4},{"id":"1123","name":"Jeevan Nagar Hospital","lng":73.861702,"lat":18.587799,"routeCount":4},{"id":"1124","name":"Ganesh Nagar Gali No 4","lng":73.862602,"lat":18.589399,"routeCount":4},{"id":"1125","name":"Ganesh Nagar Bopkhel","lng":73.873375,"lat":18.597422,"routeCount":2},{"id":"1126","name":"Sathe Biscuit","lng":73.878899,"lat":18.570601,"routeCount":5},{"id":"1127","name":"Mental Corner","lng":73.8797,"lat":18.5674,"routeCount":5},{"id":"1128","name":"Shanti Nagar","lng":73.8787,"lat":18.567301,"routeCount":4},{"id":"1129","name":"Police Line Phule Nagar","lng":73.870796,"lat":18.568899,"routeCount":3},{"id":"1130","name":"Mula House","lng":73.867104,"lat":18.573,"routeCount":3},{"id":"1131","name":"Ordinance Club","lng":73.862999,"lat":18.5716,"routeCount":3},{"id":"1132","name":"Arsenal Factory Gate","lng":73.856796,"lat":18.569599,"routeCount":3},{"id":"1133","name":"Ammunition Factory Gate","lng":73.856697,"lat":18.5683,"routeCount":3},{"id":"1134","name":"Ammunition Stores","lng":73.856499,"lat":18.567801,"routeCount":3},{"id":"1135","name":"Vehicle Depot Khadki","lng":73.854897,"lat":18.5655,"routeCount":3},{"id":"1136","name":"Trikonibaug","lng":73.852997,"lat":18.563299,"routeCount":3},{"id":"1138","name":"Bopodigaon","lng":73.838203,"lat":18.5714,"routeCount":3},{"id":"1139","name":"Yantriki Bhavan","lng":73.826797,"lat":18.579,"routeCount":1},{"id":"1140","name":"Manapa Mangal Tolkies","lng":73.854401,"lat":18.5236,"routeCount":4},{"id":"1141","name":"Power House Khadki","lng":73.8508,"lat":18.5646,"routeCount":1},{"id":"1142","name":"Mental Corner","lng":73.879303,"lat":18.56736,"routeCount":2},{"id":"1143","name":"Sathe Biscuit","lng":73.878746,"lat":18.570568,"routeCount":2},{"id":"1144","name":"Vishrantwadi","lng":73.877251,"lat":18.574032,"routeCount":4},{"id":"1145","name":"Kalas","lng":73.876297,"lat":18.5798,"routeCount":3},{"id":"1146","name":"Ganesh Nagar Alandi Road","lng":73.87323,"lat":18.596767,"routeCount":4},{"id":"1147","name":"Mhaske Vasti","lng":73.875298,"lat":18.586399,"routeCount":2},{"id":"1148","name":"Vishrantwadi","lng":73.877647,"lat":18.573971,"routeCount":5},{"id":"1149","name":"Pimplenilakh","lng":73.794098,"lat":18.571501,"routeCount":3},{"id":"1150","name":"Ganesh Mandir Pimplenilakh","lng":73.795303,"lat":18.5741,"routeCount":5},{"id":"1151","name":"Rakshak Chowk","lng":73.798698,"lat":18.5812,"routeCount":2},{"id":"1152","name":"Sangvi Phata Wakad Road","lng":73.806282,"lat":18.574183,"routeCount":5},{"id":"1153","name":"Bremen Chowk","lng":73.8144,"lat":18.5611,"routeCount":4},{"id":"1154","name":"Spicer College","lng":73.8181,"lat":18.563,"routeCount":2},{"id":"1155","name":"Spicer College Press","lng":73.820702,"lat":18.563,"routeCount":2},{"id":"1156","name":"Botanical Garden","lng":73.825798,"lat":18.562799,"routeCount":2},{"id":"1157","name":"Dagadikhan","lng":73.880501,"lat":18.575899,"routeCount":9},{"id":"1158","name":"Amaba Nagari","lng":73.881699,"lat":18.579901,"routeCount":9},{"id":"1159","name":"Om Chaitnya Nagari","lng":73.883904,"lat":18.5835,"routeCount":9},{"id":"1160","name":"Bhairav Nagar Lane No 7","lng":73.884598,"lat":18.5846,"routeCount":5},{"id":"1161","name":"Telephone Exchange Bhairav Nagar","lng":73.8862,"lat":18.586599,"routeCount":9},{"id":"1162","name":"Shivani Medical Bhairav Nagar","lng":73.887001,"lat":18.587601,"routeCount":9},{"id":"1163","name":"Bhairav Nagar Dhanori Road","lng":73.888397,"lat":18.5896,"routeCount":9},{"id":"1164","name":"Gokul Nagar Dhanori Road","lng":73.890503,"lat":18.591801,"routeCount":9},{"id":"1165","name":"Gurudev Datta Nagar","lng":73.892502,"lat":18.5935,"routeCount":9},{"id":"1166","name":"Dhanori Shala","lng":73.894699,"lat":18.595501,"routeCount":9},{"id":"1167","name":"Dhanorigaon","lng":73.897102,"lat":18.596701,"routeCount":9},{"id":"1168","name":"Madhav Nagar Dhanori","lng":73.901199,"lat":18.5973,"routeCount":9},{"id":"1169","name":"Kamalpark","lng":73.904297,"lat":18.597401,"routeCount":7},{"id":"1170","name":"Kamalpark Vishrantwadi","lng":73.9049,"lat":18.597601,"routeCount":8},{"id":"1171","name":"Madhav Nagar Dhanori","lng":73.900902,"lat":18.5973,"routeCount":8},{"id":"1172","name":"Dhanorigaon","lng":73.897102,"lat":18.5968,"routeCount":8},{"id":"1173","name":"Dhanori Shala","lng":73.894501,"lat":18.595501,"routeCount":8},{"id":"1174","name":"Gurudev Datta Nagar","lng":73.892403,"lat":18.593599,"routeCount":8},{"id":"1175","name":"Gokul Nagar Dhanori Road","lng":73.890404,"lat":18.591999,"routeCount":8},{"id":"1176","name":"Bhairav Nagar Dhanori Road","lng":73.888298,"lat":18.589701,"routeCount":8},{"id":"1177","name":"Shivani Medical Bhairav Nagar","lng":73.886902,"lat":18.5877,"routeCount":8},{"id":"1179","name":"Bhairav Nagar Lane No 7","lng":73.884598,"lat":18.584801,"routeCount":5},{"id":"1180","name":"Om Chaitnya Nagari","lng":73.883102,"lat":18.582701,"routeCount":8},{"id":"1181","name":"Amaba Nagari","lng":73.881599,"lat":18.579901,"routeCount":8},{"id":"1182","name":"Dagadikhan","lng":73.880402,"lat":18.576,"routeCount":8},{"id":"1183","name":"Botanical Garden","lng":73.825798,"lat":18.5627,"routeCount":2},{"id":"1184","name":"Spicer College Press","lng":73.820702,"lat":18.562799,"routeCount":2},{"id":"1185","name":"Spicer College","lng":73.8181,"lat":18.562799,"routeCount":2},{"id":"1186","name":"Bremen Chowk","lng":73.814301,"lat":18.561001,"routeCount":7},{"id":"1187","name":"Rakshak Chowk","lng":73.798599,"lat":18.5812,"routeCount":6},{"id":"1188","name":"Ganesh Mandir Pimplenilakh","lng":73.795403,"lat":18.5741,"routeCount":5},