[{"id":59,"name":"Robert Bosch - Koramangala","lat":12.936055,"lon":77.612026,"type":"Company","associableId":54,"cityId":18326},{"id":50,"name":"Vinod junction","lat":12.9664479,"lon":77.5816542,"type":"Company","associableId":6,"cityId":18326},{"id":45,"name":"Robert Bosch - Adugodi ","lat":12.946313553435187,"lon":77.60639905951395,"type":"Company","associableId":42,"cityId":18326},{"id":51,"name":"Crown Dental Care","lat":13.022858,"lon":77.650952,"type":"Company","associableId":5,"cityId":18326},{"id":29,"name":"Robert Bosch - Bommanahalli","lat":12.901735159875354,"lon":77.63289570852068,"type":"Company","associableId":28,"cityId":18326},{"id":56,"name":"Cisco - OMR","lat":12.991385778306832,"lon":80.2467620377138,"type":"Company","associableId":51,"cityId":18586},{"id":52,"name":"Robert Bosch - Prestige tech park","lat":12.941348592645255,"lon":77.69058054698691,"type":"Company","associableId":47,"cityId":18326},{"id":54,"name":"Cartesian Consulting - Koramangala","lat":12.93924860589928,"lon":77.62546872725581,"type":"Company","associableId":49,"cityId":18326},{"id":55,"name":"IBM - EGL","lat":12.952145365602945,"lon":77.64396310749363,"type":"Company","associableId":50,"cityId":18326},{"id":38,"name":"Parallel Wireless India","lat":12.978934490946543,"lon":77.69377063221329,"type":"Company","associableId":36,"cityId":18326},{"id":58,"name":"Indian Oil Corporation - Mission Rd.","lat":12.9626379,"lon":77.5932655,"type":"Company","associableId":53,"cityId":18326},{"id":61,"name":"Bluefish Pharmaceutical","lat":13.039740080946993,"lon":77.75884294387653,"type":"Company","associableId":56,"cityId":18326},{"id":62,"name":"Run Service Infocare","lat":13.094474286844907,"lon":80.16884121112528,"type":"Company","associableId":57,"cityId":18586},{"id":46,"name":"Mercedes-Benz R&D India","lat":12.986482701002943,"lon":77.73091324464986,"type":"Company","associableId":43,"cityId":18326},{"id":28,"name":"Wadhwani Foundation","lat":12.9805998,"lon":77.7269016,"type":"Company","associableId":27,"cityId":18326},{"id":47,"name":"Whizdm Innovations","lat":12.938398149835942,"lon":77.69369518378882,"type":"Company","associableId":44,"cityId":18326},{"id":19,"name":"Robert Bosch - Electronic City","lat":12.837996120131514,"lon":77.66376279185354,"type":"Company","associableId":20,"cityId":18326},{"id":42,"name":"Sharan - Teachers colony","lat":12.918524883822052,"lon":77.63023766689004,"type":"Company","associableId":39,"cityId":18326},{"id":4,"name":"The Good City","lat":12.973702388187604,"lon":77.59908186038957,"type":"Company","associableId":4,"cityId":18326},{"id":8,"name":"KSEB Perinjanam","lat":10.313209299662853,"lon":76.14786475885923,"type":"Company","associableId":10,"cityId":18363},{"id":3,"name":"WIPRO - Electronic City","lat":12.838770206222764,"lon":77.6554622501135,"type":"Company","associableId":3,"cityId":18326},{"id":15,"name":"Oracle - Kalyani Magnum","lat":12.899799380209211,"lon":77.59724146129885,"type":"Company","associableId":16,"cityId":18326},{"id":16,"name":"Institute of Nephro-Urology","lat":12.96605786751414,"lon":77.57084500910425,"type":"Company","associableId":17,"cityId":18326},{"id":22,"name":"Tata Elxsi","lat":12.99092290732462,"lon":77.72475182615382,"type":"Company","associableId":21,"cityId":18326},{"id":26,"name":"AMD India","lat":12.974433683208568,"lon":77.72576906718315,"type":"Company","associableId":25,"cityId":18326},{"id":1370,"name":"AEC","lat":23.0759811,"lon":72.5941157,"type":"TransitPoint","associableId":672,"cityId":42},{"id":11,"name":"Philips Lighting India - Manyata","lat":13.045637242490173,"lon":77.62161920971268,"type":"Company","associableId":14,"cityId":18326},{"id":31,"name":"Quintype Technologies India","lat":12.959488953782555,"lon":77.65638600296371,"type":"Company","associableId":30,"cityId":18326},{"id":34,"name":"Cognizant Technology Solutions - Manyata","lat":13.050695925341955,"lon":77.62349735945465,"type":"Company","associableId":32,"cityId":18326},{"id":35,"name":"TiVo","lat":12.929709917699569,"lon":77.69048152724282,"type":"Company","associableId":33,"cityId":18326},{"id":37,"name":"Aveva","lat":12.936599634726921,"lon":77.69065987318754,"type":"Company","associableId":35,"cityId":18326},{"id":18,"name":"Cisco Systems India - Cessna","lat":12.935796327063615,"lon":77.69611234411288,"type":"Company","associableId":19,"cityId":18326},{"id":32,"name":"Brillio - Sarjapur rd","lat":12.919672852916142,"lon":77.6677286015911,"type":"Company","associableId":31,"cityId":18326},{"id":43,"name":"Bharathiasha Technologies","lat":12.972403327046965,"lon":77.6373637766301,"type":"Company","associableId":40,"cityId":18326},{"id":24,"name":"Sonata Software - Richmond Rd","lat":12.965400457443772,"lon":77.60036322288215,"type":"Company","associableId":23,"cityId":18326},{"id":41,"name":"Credit Suisse India","lat":12.9901861,"lon":77.7311169,"type":"Company","associableId":38,"cityId":18326},{"id":25,"name":"DXC Technology","lat":12.850430209166822,"lon":77.66971051029033,"type":"Company","associableId":24,"cityId":18326},{"id":39,"name":"Tangoe - Global Tech Park","lat":12.927073562339498,"lon":77.68290817748495,"type":"Company","associableId":37,"cityId":18326},{"id":27,"name":"JCPenney Services - Manyata","lat":13.0478295,"lon":77.6226347,"type":"Company","associableId":26,"cityId":18326},{"id":85,"name":"Infosys - Hinjewadi","lat":18.594307786462622,"lon":73.70822707551271,"type":"Company","associableId":80,"cityId":18455},{"id":66,"name":"Aerospike","lat":12.938659560836227,"lon":77.62883487157525,"type":"Company","associableId":61,"cityId":18326},{"id":67,"name":"Hitachi Vantara","lat":12.965258265093238,"lon":77.596465766419,"type":"Company","associableId":62,"cityId":18326},{"id":36,"name":"Juniper Networks India - ORR","lat":12.942140814440004,"lon":77.69121500663461,"type":"Company","associableId":34,"cityId":18326},{"id":68,"name":"L&T Technology Services - Manyata","lat":13.045318458389252,"lon":77.61841096915306,"type":"Company","associableId":63,"cityId":18326},{"id":1,"name":"Mapunity","lat":12.9112546,"lon":77.5914721,"type":"Company","associableId":1,"cityId":18326},{"id":49,"name":"Bosch Global Software Technologies - CHIL SEZ","lat":11.099678870344535,"lon":76.9867208004871,"type":"Company","associableId":46,"cityId":18587},{"id":83,"name":"Thought Frameworks","lat":12.920365357983888,"lon":77.56017836742105,"type":"Company","associableId":78,"cityId":18326},{"id":69,"name":"Cumulus Networks","lat":12.927533666399384,"lon":77.69210818223657,"type":"Company","associableId":64,"cityId":18326},{"id":100,"name":"PhonePe India","lat":12.9274794,"lon":77.6328529,"type":"Company","associableId":95,"cityId":18326},{"id":84,"name":"Amazon Development Center","lat":12.979316088784827,"lon":77.69709625281395,"type":"Company","associableId":79,"cityId":18326},{"id":70,"name":"Printq Digital Imaging","lat":12.9128328,"lon":77.6324838,"type":"Company","associableId":65,"cityId":18326},{"id":71,"name":"Mavenir Systems - Manyata","lat":13.045633065609143,"lon":77.62091392134609,"type":"Company","associableId":66,"cityId":18326},{"id":87,"name":"WRI India","lat":12.93698652569985,"lon":77.57858905009927,"type":"Company","associableId":82,"cityId":18326},{"id":74,"name":"Avi Networks","lat":12.933915356413372,"lon":77.61344641276084,"type":"Company","associableId":69,"cityId":18326},{"id":73,"name":"Lowes India","lat":13.043909183594748,"lon":77.61856740329678,"type":"Company","associableId":68,"cityId":18326},{"id":72,"name":"Quikr India","lat":13.058724999982315,"lon":77.62589089572431,"type":"Company","associableId":67,"cityId":18326},{"id":75,"name":"Dassault Systemes","lat":12.9327549,"lon":77.581041,"type":"Company","associableId":70,"cityId":18326},{"id":76,"name":"Citrix - Ulsoor road","lat":12.975178596038669,"lon":77.61696982663126,"type":"Company","associableId":71,"cityId":18326},{"id":99,"name":"Capgemini India - Whitefield","lat":12.97419844711443,"lon":77.7172856028483,"type":"Company","associableId":94,"cityId":18326},{"id":77,"name":"Amadeus Software Labs","lat":12.9432597,"lon":77.6906186,"type":"Company","associableId":72,"cityId":18326},{"id":86,"name":"Airbus Group India","lat":12.9946215,"lon":77.7016506,"type":"Company","associableId":81,"cityId":18326},{"id":79,"name":"HCL Tech - ECity","lat":12.843833088902755,"lon":77.67179229296745,"type":"Company","associableId":74,"cityId":18326},{"id":80,"name":"Happy Earth Enterprises LLP","lat":12.899084387349898,"lon":77.60654750629328,"type":"Company","associableId":75,"cityId":18326},{"id":88,"name":"Tejas Networks - ECity Ph1","lat":12.844324727036012,"lon":77.66591638337562,"type":"Company","associableId":83,"cityId":18326},{"id":81,"name":"ONZE Technologies India","lat":12.918739257930746,"lon":77.56636887799687,"type":"Company","associableId":76,"cityId":18326},{"id":96,"name":"Qualcomm CDC - OMR","lat":12.970157579026804,"lon":80.25054129771888,"type":"Company","associableId":91,"cityId":18586},{"id":90,"name":"MiQ Digital India","lat":12.965295904299674,"lon":77.59668859653175,"type":"Company","associableId":85,"cityId":18326},{"id":102,"name":"Sling Media","lat":12.944102075614298,"lon":77.69828715361655,"type":"Company","associableId":97,"cityId":18326},{"id":97,"name":"TCS GG 5","lat":28.4326392,"lon":77.1535197,"type":"Company","associableId":92,"cityId":18258},{"id":92,"name":"Siemens Gamesa Renewable Energy","lat":12.84612181316661,"lon":77.67831788944022,"type":"Company","associableId":87,"cityId":18326},{"id":93,"name":"Fireeye India","lat":12.93200917982083,"lon":77.60128319274374,"type":"Company","associableId":88,"cityId":18326},{"id":98,"name":"Myntra Designs","lat":12.892731534535251,"lon":77.64226351864636,"type":"Company","associableId":93,"cityId":18326},{"id":103,"name":"MARAX AI","lat":12.887357270446095,"lon":77.6418021367863,"type":"Company","associableId":98,"cityId":18326},{"id":109,"name":"Direct Dialogue Initiatives India","lat":12.9728489,"lon":77.6156236,"type":"Company","associableId":104,"cityId":18326},{"id":107,"name":"Infosys - Electronic City","lat":12.850165,"lon":77.6636325,"type":"Company","associableId":102,"cityId":18326},{"id":48,"name":"Robert Bosch - Bellandur","lat":12.927533666399384,"lon":77.68094748269507,"type":"Company","associableId":45,"cityId":18326},{"id":104,"name":"ESI Software India","lat":12.9215035,"lon":77.5704858,"type":"Company","associableId":99,"cityId":18326},{"id":105,"name":"LG Soft India","lat":12.935993155777924,"lon":77.69463750533761,"type":"Company","associableId":100,"cityId":18326},{"id":108,"name":"Infosys","lat":12.849000099842883,"lon":77.66532453375477,"type":"Company","associableId":103,"cityId":18326},{"id":13,"name":"Cerner India Health Services ","lat":12.927420383334711,"lon":77.68291538575797,"type":"Company","associableId":15,"cityId":18326},{"id":23,"name":"Altisource","lat":12.9222791,"lon":77.68050471,"type":"Company","associableId":22,"cityId":18326},{"id":57,"name":"Accenture - IBC","lat":12.933164540412616,"lon":77.6017431012224,"type":"Company","associableId":52,"cityId":18326},{"id":10,"name":"NTT Data - EPIP","lat":12.9768981,"lon":77.7185841,"type":"Company","associableId":13,"cityId":18326},{"id":82,"name":"AVR Edge Networks","lat":12.974668919080184,"lon":77.61443501338363,"type":"Company","associableId":77,"cityId":18326},{"id":65,"name":"BUMSONTHESADDLE","lat":12.93004330997798,"lon":77.58286449126899,"type":"Company","associableId":60,"cityId":18326},{"id":78,"name":"Inmobi","lat":12.935264852179309,"lon":77.69454909721391,"type":"Company","associableId":73,"cityId":18326},{"id":106,"name":"Streamoid Technologies","lat":13.04863792876112,"lon":77.57964175427334,"type":"Company","associableId":101,"cityId":18326},{"id":124,"name":"SAP Labs India","lat":12.97940103342939,"lon":77.71549545228481,"type":"Company","associableId":143,"cityId":18326},{"id":110,"name":"Micro Focus","lat":12.9785436,"lon":77.6645414,"type":"Company","associableId":109,"cityId":18326},{"id":136,"name":"IPINFUSION India","lat":12.97571327490098,"lon":77.71221840333966,"type":"Company","associableId":222,"cityId":18326},{"id":111,"name":"Motherhood Hospital - Sarjapur Road ","lat":12.917844661816952,"lon":77.67188921561912,"type":"Company","associableId":110,"cityId":18326},{"id":114,"name":"Keysight Technologies","lat":12.98310589852865,"lon":77.62442892417312,"type":"Company","associableId":113,"cityId":18326},{"id":112,"name":"Capital Float","lat":13.004275496233182,"lon":77.58387300185859,"type":"Company","associableId":111,"cityId":18326},{"id":135,"name":"Promolta Inc","lat":12.933686231806577,"lon":77.62165067459138,"type":"Company","associableId":221,"cityId":18326},{"id":64,"name":"Samsung R&D Institute - Bagmane Tech Park ","lat":12.980257012458416,"lon":77.69741627387704,"type":"Company","associableId":59,"cityId":18326},{"id":94,"name":"Qualcomm L building - EPIP Brookefield","lat":12.974386636007551,"lon":77.71776443347335,"type":"Company","associableId":89,"cityId":18326},{"id":127,"name":"IBM - Bhartiya City","lat":13.084160056232422,"lon":77.6401767560219,"type":"Company","associableId":152,"cityId":18326},{"id":115,"name":"United Consultancy Services","lat":12.9309066,"lon":77.6284195,"type":"Company","associableId":114,"cityId":18326},{"id":116,"name":"Novozymes South Asia","lat":12.97936574881416,"lon":77.72258353797952,"type":"Company","associableId":115,"cityId":18326},{"id":142,"name":"Infosys - Amsterdam","lat":52.3403704,"lon":4.8726011,"type":"Company","associableId":227,"cityId":25882},{"id":117,"name":"LogMeIn Systems India","lat":12.982700467676224,"lon":77.59358126508232,"type":"Company","associableId":121,"cityId":18326},{"id":118,"name":"BrandMuscle India","lat":12.936714656430208,"lon":77.61052435263993,"type":"Company","associableId":122,"cityId":18326},{"id":128,"name":"Deloitte & Touche","lat":12.949057,"lon":77.691284,"type":"Company","associableId":158,"cityId":18326},{"id":129,"name":"Sysrtm","lat":12.891673516053126,"lon":77.57548696351934,"type":"Company","associableId":171,"cityId":18326},{"id":137,"name":"Tieto India","lat":12.934593020360845,"lon":77.69443045563095,"type":"Company","associableId":223,"cityId":18326},{"id":130,"name":"Ellucian Higher Education Systems","lat":12.922043732949753,"lon":77.68376480798908,"type":"Company","associableId":182,"cityId":18326},{"id":123,"name":"Titan - ECity","lat":12.841856066273536,"lon":77.67302962951364,"type":"Company","associableId":142,"cityId":18326},{"id":122,"name":"Bank Bazaar - Adonis","lat":12.9839945352079,"lon":77.6389020683564,"type":"Company","associableId":141,"cityId":18326},{"id":121,"name":"Pramati Technologies","lat":13.01312960224449,"lon":77.55627047270536,"type":"Company","associableId":133,"cityId":18326},{"id":120,"name":"OpenText - EGL","lat":12.953512483610822,"lon":77.64249536208808,"type":"Company","associableId":132,"cityId":18326},{"id":119,"name":"EVRY India","lat":12.92063201646777,"lon":77.57255857804923,"type":"Company","associableId":129,"cityId":18326},{"id":140,"name":"Shell Shared Services - Metro Manila","lat":14.558252,"lon":121.0152064,"type":"Company","associableId":225,"cityId":26510},{"id":125,"name":"TapChief","lat":12.965742664478116,"lon":77.64132535317914,"type":"Company","associableId":144,"cityId":18323},{"id":131,"name":"WIRTZ Manufacturing India","lat":12.791713999000201,"lon":77.65981170348824,"type":"Company","associableId":188,"cityId":18326},{"id":138,"name":"Altiostar Networks","lat":12.9784454,"lon":77.6632055,"type":"Company","associableId":224,"cityId":18326},{"id":132,"name":"Shell India Markets","lat":12.924521015321469,"lon":77.68853925152143,"type":"Company","associableId":189,"cityId":18326},{"id":133,"name":"Cadence90","lat":12.919418979497893,"lon":77.59681826457383,"type":"Company","associableId":195,"cityId":18326},{"id":1371,"name":"APMC","lat":22.9976467,"lon":72.5372422,"type":"TransitPoint","associableId":673,"cityId":42},{"id":143,"name":"QuEST Global - ORR","lat":12.9293736,"lon":77.6908939,"type":"Company","associableId":229,"cityId":18326},{"id":148,"name":"General Motors Technical Center India","lat":12.985463392398152,"lon":77.73634058834433,"type":"Company","associableId":234,"cityId":18326},{"id":146,"name":"Aptiv","lat":12.971783343679425,"lon":77.71849575452508,"type":"Company","associableId":232,"cityId":18326},{"id":147,"name":"ARICENT - ORR","lat":12.938293585359133,"lon":77.6929772179574,"type":"Company","associableId":233,"cityId":18326},{"id":144,"name":"Cruise Automation - Bryant","lat":37.7698388253195,"lon":-122.40974742919208,"type":"Company","associableId":230,"cityId":30973},{"id":151,"name":"Antuit India","lat":12.983472577996281,"lon":77.72163329862225,"type":"Company","associableId":237,"cityId":18326},{"id":150,"name":"Broadcom","lat":12.837927079202604,"lon":77.65445897035535,"type":"Company","associableId":236,"cityId":18326},{"id":152,"name":"Altruista Healthcare","lat":17.4046212,"lon":78.3300544,"type":"Company","associableId":239,"cityId":18629},{"id":153,"name":"Aditya Birla Science and Technology","lat":19.0580109,"lon":73.1049371,"type":"Company","associableId":240,"cityId":18445},{"id":154,"name":"Incred Financial Services","lat":12.9576044,"lon":77.7442255,"type":"Company","associableId":238,"cityId":18326},{"id":155,"name":"BNP PARIBAS","lat":19.1764356,"lon":72.8828069,"type":"Company","associableId":241,"cityId":18445},{"id":156,"name":"Canara Hydraulics","lat":13.02697984215782,"lon":77.51028123311701,"type":"Company","associableId":243,"cityId":18326},{"id":157,"name":"Accenture - ITPL","lat":12.96915,"lon":77.72383,"type":"Company","associableId":242,"cityId":18326},{"id":149,"name":"Happiest Minds - Madiwala","lat":12.9204846,"lon":77.621202,"type":"Company","associableId":235,"cityId":18326},{"id":158,"name":"The Fuller Life","lat":12.9561199,"lon":77.6372239,"type":"Company","associableId":244,"cityId":18326},{"id":160,"name":"Dream Orbit","lat":12.934414212287377,"lon":77.61850568465889,"type":"Company","associableId":246,"cityId":18326},{"id":161,"name":"Alstom Transport India - Embassy Prime Bldg","lat":12.979356141094462,"lon":77.65747352633299,"type":"Company","associableId":247,"cityId":18326},{"id":162,"name":"IBM - SA","lat":12.9244588,"lon":77.6011206,"type":"Company","associableId":248,"cityId":18326},{"id":163,"name":"BYCS","lat":52.3712194,"lon":4.8794344,"type":"Company","associableId":249,"cityId":25882},{"id":164,"name":"Fidelity Investments","lat":12.950106107055278,"lon":77.64416826656544,"type":"Company","associableId":250,"cityId":18326},{"id":165,"name":"Aryaka Networks","lat":12.925044911599457,"lon":77.63214832171799,"type":"Company","associableId":251,"cityId":18326},{"id":167,"name":"GOJEK","lat":12.959984546793896,"lon":77.64407786540687,"type":"Company","associableId":253,"cityId":18326},{"id":168,"name":"Tiara - Mysore Road","lat":12.954044177391959,"lon":77.55019342526793,"type":"Company","associableId":254,"cityId":18326},{"id":126,"name":"McAfee","lat":12.946279048266154,"lon":77.6463706345021,"type":"Company","associableId":151,"cityId":18326},{"id":166,"name":"Morgan Stanley - Marathahalli","lat":12.919832857132638,"lon":77.68362481612714,"type":"Company","associableId":252,"cityId":18326},{"id":113,"name":"Bosch Limited - Naganathapura","lat":12.8708748,"lon":77.6621368,"type":"Company","associableId":112,"cityId":18326},{"id":183,"name":"Impelsys - Golden Enclave","lat":12.958578272732446,"lon":77.65192869119348,"type":"Company","associableId":266,"cityId":18323},{"id":199,"name":"","lat":12.903281702845394,"lon":77.5857825064668,"type":"Item","associableId":6,"cityId":null},{"id":171,"name":"General Electric - JFWTC","lat":12.9736764,"lon":77.7245519,"type":"Company","associableId":257,"cityId":18326},{"id":187,"name":"Bewgle","lat":12.951092,"lon":77.6412016,"type":"Company","associableId":270,"cityId":18326},{"id":172,"name":"Ryan Foods LLP","lat":12.969326396209064,"lon":77.63605806045236,"type":"Company","associableId":258,"cityId":18326},{"id":173,"name":"FIXMYCYCLE","lat":13.023060041491968,"lon":80.23951473645867,"type":"Company","associableId":259,"cityId":18586},{"id":174,"name":"juniper Networks","lat":12.865359661408899,"lon":77.6312828063965,"type":"Company","associableId":260,"cityId":18323},{"id":188,"name":"robert bosch","lat":12.946292641207258,"lon":77.60632399367752,"type":"Company","associableId":271,"cityId":18323},{"id":175,"name":"Fowler Westrup -  MG Road","lat":12.973226135564747,"lon":77.61380377225579,"type":"Company","associableId":261,"cityId":18326},{"id":30,"name":"Dell EMC","lat":12.978744213141464,"lon":77.66603511467112,"type":"Company","associableId":29,"cityId":18326},{"id":176,"name":"","lat":12.918812386201596,"lon":77.68534898801592,"type":"Item","associableId":1,"cityId":null},{"id":189,"name":"Robert Bosch Engg coimbatore","lat":1,"lon":1,"type":"Company","associableId":272,"cityId":18586},{"id":179,"name":"Toyota Kirloskar Motor - UB City","lat":12.97141891263853,"lon":77.59637794351421,"type":"Company","associableId":262,"cityId":18326},{"id":200,"name":"","lat":12.95997889457081,"lon":77.64701677569066,"type":"Item","associableId":7,"cityId":null},{"id":190,"name":"Robert Bosch - Broadview","lat":41.8518548,"lon":-87.863954,"type":"Company","associableId":273,"cityId":31384},{"id":180,"name":"Orient Press - Bengaluru","lat":12.9310772,"lon":77.5788148,"type":"Company","associableId":263,"cityId":18326},{"id":181,"name":"Robert Bosch - GTP","lat":12.936641460806978,"lon":77.60677378624678,"type":"Company","associableId":264,"cityId":18326},{"id":192,"name":"","lat":12.918725242355869,"lon":77.68533468246461,"type":"Item","associableId":5,"cityId":null},{"id":201,"name":"","lat":12.955106989750826,"lon":77.60122060775758,"type":"Item","associableId":8,"cityId":null},{"id":184,"name":"Whodat","lat":12.9813173,"lon":77.6401995,"type":"Company","associableId":267,"cityId":18326},{"id":182,"name":"Schneider Electric India - Elnath","lat":12.942845586693538,"lon":77.69119307617075,"type":"Company","associableId":265,"cityId":18326},{"id":186,"name":"Bharat Electronics Limited","lat":13.04802,"lon":77.559049,"type":"Company","associableId":269,"cityId":18326},{"id":185,"name":"Unisys Global Services ","lat":12.901319773478786,"lon":77.70449360355997,"type":"Company","associableId":268,"cityId":18326},{"id":193,"name":"Oracle Tech Hub","lat":12.9417092,"lon":77.6960679,"type":"Company","associableId":274,"cityId":18326},{"id":194,"name":"Bewgle - Pune","lat":18.556249930012935,"lon":73.89413776807488,"type":"Company","associableId":275,"cityId":18455},{"id":202,"name":"HSBC - Bellandur","lat":12.924292006099627,"lon":77.67109936103225,"type":"Company","associableId":280,"cityId":18326},{"id":195,"name":"Robert Bosch EBS - Gachibowli","lat":17.451752200562307,"lon":78.36293226091585,"type":"Company","associableId":276,"cityId":18629},{"id":196,"name":"Bosch - Tidel Park","lat":11.031713943178968,"lon":77.0181850793597,"type":"Company","associableId":277,"cityId":18587},{"id":197,"name":"Decathlon Anubhava","lat":16.18698068828009,"lon":75.61240285634996,"type":"Company","associableId":278,"cityId":18323},{"id":198,"name":"TRACK and TRAIL - Livenup Concepts","lat":12.972591,"lon":77.51266,"type":"Company","associableId":279,"cityId":18326},{"id":203,"name":"RBL Bank - Residency road","lat":12.9684925,"lon":77.6014945,"type":"Company","associableId":281,"cityId":18326},{"id":205,"name":"Tata Consultancy Services - ITPL","lat":12.9814678,"lon":77.7249958,"type":"Company","associableId":283,"cityId":18326},{"id":204,"name":"AthenaHealth","lat":12.965520693505168,"lon":77.59641593322158,"type":"Company","associableId":282,"cityId":18326},{"id":207,"name":"U R Rao Satellite Center","lat":12.962181,"lon":77.65499,"type":"Company","associableId":285,"cityId":18326},{"id":206,"name":"Tata Communications Ltd - EPIP","lat":12.980685654284414,"lon":77.72481213214634,"type":"Company","associableId":284,"cityId":18326},{"id":210,"name":"Nokia Networks","lat":13.047048249149091,"lon":77.61898848228158,"type":"Company","associableId":288,"cityId":18326},{"id":209,"name":"Wisseninfotech","lat":12.974108,"lon":77.718401,"type":"Company","associableId":287,"cityId":18326},{"id":212,"name":"Goldman Sachs  (ORR)","lat":12.9363,"lon":77.688891,"type":"Company","associableId":290,"cityId":18326},{"id":215,"name":"Axa Business Services","lat":13.04557738246747,"lon":77.621296051002,"type":"Company","associableId":293,"cityId":18326},{"id":214,"name":"GoFloaters","lat":12.933546311940354,"lon":77.62168452143669,"type":"Company","associableId":292,"cityId":18326},{"id":211,"name":"NXP Semiconductors - Manyata","lat":13.044901,"lon":77.621591,"type":"Company","associableId":289,"cityId":18326},{"id":213,"name":"VMware","lat":12.899312,"lon":77.596911,"type":"Company","associableId":291,"cityId":18326},{"id":208,"name":"Continental Automotive","lat":12.817073,"lon":77.687559,"type":"Company","associableId":286,"cityId":18323},{"id":216,"name":"Neva Innovation Labs ","lat":12.915181,"lon":77.628319,"type":"Company","associableId":294,"cityId":18326},{"id":218,"name":"Canara Bank","lat":12.964453308627307,"lon":77.58541417707421,"type":"Company","associableId":296,"cityId":18326},{"id":217,"name":"TD Power system Ltd ","lat":13.2232292,"lon":77.254123,"type":"Company","associableId":295,"cityId":18326},{"id":220,"name":"Bangalore University - Campus","lat":12.946666942251952,"lon":77.50340839150341,"type":"Company","associableId":298,"cityId":18326},{"id":221,"name":"Tayana software solutions","lat":12.971072399672403,"lon":77.61815389618279,"type":"Company","associableId":299,"cityId":18326},{"id":170,"name":"Decathlon Sports India - Anubhava","lat":13.1685742,"lon":77.6326253,"type":"Company","associableId":256,"cityId":18326},{"id":222,"name":"Volvo","lat":12.9782491,"lon":77.6630777,"type":"Company","associableId":300,"cityId":18326},{"id":260,"name":"Institute for Social and Economic Change","lat":12.954062,"lon":77.513997,"type":"Company","associableId":336,"cityId":18326},{"id":253,"name":"Juniper Networks - Tridib","lat":12.9788038,"lon":77.6636571,"type":"Company","associableId":329,"cityId":18326},{"id":223,"name":"PalC Networks","lat":12.9776067,"lon":77.7250186,"type":"Company","associableId":301,"cityId":18326},{"id":248,"name":"Syniverse technologies","lat":12.9350711,"lon":77.6945677,"type":"Company","associableId":324,"cityId":18326},{"id":237,"name":"Great Software Laboratory","lat":18.5565315,"lon":73.7939785,"type":"Company","associableId":314,"cityId":18455},{"id":224,"name":"Cognizant Technology Solutions - Hinjewadi","lat":18.594893891488905,"lon":73.68805825708934,"type":"Company","associableId":302,"cityId":18455},{"id":226,"name":"Earthline Services","lat":13.011948403267322,"lon":77.62514099893451,"type":"Company","associableId":304,"cityId":18326},{"id":225,"name":"Hewlett Packard Enterprise - Brooke field","lat":12.970752474461577,"lon":77.71631044175592,"type":"Company","associableId":303,"cityId":18326},{"id":227,"name":"Cognizant Technology Solutions - Bagmane","lat":12.979587911545256,"lon":77.66345146112145,"type":"Company","associableId":305,"cityId":18326},{"id":239,"name":"Microland Limited - ECity","lat":12.837865362110536,"lon":77.66416492871943,"type":"Company","associableId":316,"cityId":18326},{"id":228,"name":"Texas Instruments India ","lat":12.9791531,"lon":77.6596334,"type":"Company","associableId":306,"cityId":18326},{"id":229,"name":"Genpact - Pritech Park","lat":12.922618210538007,"lon":77.67985572012095,"type":"Company","associableId":307,"cityId":18326},{"id":230,"name":"Red Hat India - Engg","lat":12.9823286,"lon":77.6991806,"type":"Company","associableId":308,"cityId":18326},{"id":241,"name":"Intel India - BGA","lat":12.959325847080816,"lon":77.64816647379122,"type":"Company","associableId":318,"cityId":18326},{"id":231,"name":"Pratian Technologies","lat":12.97279748087852,"lon":77.72084897384049,"type":"Company","associableId":309,"cityId":18326},{"id":240,"name":"Intel Technologies - EMB","lat":12.95810777034387,"lon":77.71660571917893,"type":"Company","associableId":317,"cityId":18326},{"id":232,"name":"Sigma Aldrich","lat":12.8411865,"lon":77.667124,"type":"Company","associableId":310,"cityId":18326},{"id":242,"name":"","lat":20.726762182840208,"lon":78.5491105914116,"type":"Item","associableId":10,"cityId":null},{"id":233,"name":"IBM - Manyata","lat":13.048541,"lon":77.621426,"type":"Company","associableId":311,"cityId":18326},{"id":234,"name":"","lat":13.00079439751808,"lon":77.72267103195192,"type":"Item","associableId":9,"cityId":null},{"id":250,"name":"Aruba Networks HPE","lat":12.936892417140049,"lon":77.69158070906998,"type":"Company","associableId":326,"cityId":18326},{"id":235,"name":"Falabella India","lat":13.0527578,"lon":77.6188421,"type":"Company","associableId":312,"cityId":18326},{"id":243,"name":"Honeywell - Campus 2","lat":12.919283035332437,"lon":77.68638979643585,"type":"Company","associableId":319,"cityId":18326},{"id":236,"name":"Flipkart","lat":12.926982064271947,"lon":77.69218055997045,"type":"Company","associableId":313,"cityId":18326},{"id":60,"name":"Intel Technology - ORR","lat":12.925622,"lon":77.6845307,"type":"Company","associableId":55,"cityId":18326},{"id":244,"name":"Intel Technology - Hyderabad","lat":17.421930130783895,"lon":78.33886032918599,"type":"Company","associableId":320,"cityId":18629},{"id":245,"name":"Truebil.com","lat":19.117779989771382,"lon":72.88882269524039,"type":"Company","associableId":321,"cityId":18445},{"id":251,"name":"ARM","lat":12.9842758,"lon":77.6928853,"type":"Company","associableId":327,"cityId":18326},{"id":247,"name":"eGain","lat":18.5449673,"lon":73.9097902,"type":"Company","associableId":323,"cityId":18454},{"id":262,"name":"Alphabricks Technologies","lat":18.56864226346022,"lon":73.90843320870773,"type":"Company","associableId":338,"cityId":18454},{"id":256,"name":"Accenture - ORR","lat":12.985803162397737,"lon":77.69526606425644,"type":"Company","associableId":332,"cityId":18326},{"id":246,"name":"Ernst & Young - Brigade Metropolis","lat":12.99202348487293,"lon":77.70357730798425,"type":"Company","associableId":322,"cityId":18326},{"id":257,"name":"ZeOmega infotech","lat":12.936478388612539,"lon":77.57651037386269,"type":"Company","associableId":333,"cityId":18326},{"id":254,"name":"nference","lat":12.9525924,"lon":77.6500073,"type":"Company","associableId":330,"cityId":18326},{"id":258,"name":"Gigamon","lat":13.032916915402943,"lon":80.24450096301736,"type":"Company","associableId":334,"cityId":18586},{"id":263,"name":"Oaknorth India","lat":12.89099458336501,"lon":77.59671810083091,"type":"Company","associableId":339,"cityId":18326},{"id":268,"name":"Dyna Tech","lat":18.64475586306263,"lon":73.7504428625107,"type":"Company","associableId":344,"cityId":18454},{"id":261,"name":"Arghyam","lat":12.9705062,"lon":77.6435698,"type":"Company","associableId":337,"cityId":18326},{"id":266,"name":"ThoughtWorks Bengaluru","lat":12.987784273603385,"lon":77.60017454624177,"type":"Company","associableId":342,"cityId":18326},{"id":264,"name":"Cognizant CHIL SEZ","lat":11.1022204,"lon":76.9858176,"type":"Company","associableId":340,"cityId":18587},{"id":267,"name":"Wipro - ELCOT SEZ","lat":12.904255520479051,"lon":80.22102534770967,"type":"Company","associableId":343,"cityId":18586},{"id":265,"name":"ThoughtWorks - Koramangala","lat":12.9288269,"lon":77.6288488,"type":"Company","associableId":341,"cityId":18326},{"id":269,"name":"M4JAM","lat":-33.92854076175459,"lon":18.41174935922027,"type":"Company","associableId":345,"cityId":36045},{"id":270,"name":"Coviam Technology","lat":12.917329763798625,"lon":77.64888039632639,"type":"Company","associableId":346,"cityId":18326},{"id":272,"name":"finsoft.com","lat":12.86481286214457,"lon":77.5918960561103,"type":"Company","associableId":348,"cityId":18326},{"id":259,"name":"Tricon Infotech","lat":12.930421,"lon":77.61514,"type":"Company","associableId":335,"cityId":18326},{"id":273,"name":"WSP Consulting India","lat":13.04403070740949,"lon":77.62091012526072,"type":"Company","associableId":349,"cityId":18326},{"id":291,"name":"Comviva Technologies - Yelahanka","lat":13.0947813,"lon":77.5947629,"type":"Company","associableId":367,"cityId":18326},{"id":274,"name":"Parametric Technology","lat":12.9741898,"lon":77.617145,"type":"Company","associableId":350,"cityId":18326},{"id":271,"name":"Bigtec","lat":12.8648129,"lon":77.5918961,"type":"Company","associableId":347,"cityId":18326},{"id":302,"name":"ABB ","lat":13.057437190950486,"lon":77.59412080049516,"type":"Company","associableId":377,"cityId":18326},{"id":275,"name":"Rockwell Automation","lat":12.9619149,"lon":77.5994678,"type":"Company","associableId":351,"cityId":18326},{"id":292,"name":"Ekya School - BTM","lat":12.905018944476902,"lon":77.60662078835594,"type":"Company","associableId":368,"cityId":18326},{"id":276,"name":"Animaker","lat":12.9894568,"lon":80.2504028,"type":"Company","associableId":352,"cityId":18586},{"id":277,"name":"Autodesk India Private Limited","lat":12.954598170227266,"lon":77.60009760037066,"type":"Company","associableId":353,"cityId":18326},{"id":278,"name":"Social Alpha","lat":12.916558499315954,"lon":77.63779420405628,"type":"Company","associableId":354,"cityId":18326},{"id":280,"name":"Mahindra Lifespaces - Bannerghatta Main Road ","lat":12.898827824399307,"lon":77.64656066894533,"type":"Company","associableId":356,"cityId":18326},{"id":312,"name":"Cummins Technologies India","lat":18.496194513804266,"lon":73.80736470222475,"type":"Company","associableId":387,"cityId":18455},{"id":293,"name":"Brillio - JP Nagar","lat":12.9073752,"lon":77.5995993,"type":"Company","associableId":369,"cityId":18326},{"id":283,"name":"Aruba Networks HPE ","lat":14.657997403502987,"lon":75.62988281250001,"type":"Company","associableId":359,"cityId":18323},{"id":310,"name":"Reval Analytical Services","lat":18.53674677302412,"lon":73.85109594877576,"type":"Company","associableId":385,"cityId":18455},{"id":1372,"name":"Amraiwadi","lat":23.0078163,"lon":72.628461,"type":"TransitPoint","associableId":674,"cityId":42},{"id":284,"name":"Ericsson India Global Services","lat":12.983794156573168,"lon":77.69341349601747,"type":"Company","associableId":360,"cityId":18326},{"id":279,"name":"Autodesk","lat":12.962000366719305,"lon":77.59959733482903,"type":"Company","associableId":355,"cityId":18326},{"id":286,"name":"Vydehi Institute of Dental Sciences","lat":12.975547131034777,"lon":77.73158133029939,"type":"Company","associableId":362,"cityId":18326},{"id":282,"name":"Udhyam Learning Foundation","lat":12.9628969,"lon":77.6409513,"type":"Company","associableId":358,"cityId":18326},{"id":287,"name":"Morgan Stanley","lat":19.168774836397937,"lon":72.83632066712018,"type":"Company","associableId":363,"cityId":18445},{"id":303,"name":"Navis India Technologies ","lat":12.9837332,"lon":80.2462542,"type":"Company","associableId":378,"cityId":18586},{"id":296,"name":"Morgan Stanley - Athena","lat":19.173463893166414,"lon":72.83175408840181,"type":"Company","associableId":372,"cityId":18445},{"id":288,"name":"Morgan Stanley - Goregaon (W)","lat":19.1735271,"lon":72.8316624,"type":"Company","associableId":364,"cityId":18445},{"id":289,"name":"British Telecom - Bellandur","lat":12.92257276824936,"lon":77.67991515726864,"type":"Company","associableId":365,"cityId":18326},{"id":295,"name":"Unilever Industries","lat":12.9889891,"lon":77.7310278,"type":"Company","associableId":371,"cityId":18326},{"id":294,"name":"Synamedia India - Eco Space","lat":12.923618572098384,"lon":77.68061828606734,"type":"Company","associableId":370,"cityId":18326},{"id":298,"name":"","lat":12.932426876151492,"lon":77.67690401757136,"type":"Item","associableId":11,"cityId":null},{"id":297,"name":"Grupo Antolin India","lat":18.563224084873934,"lon":73.91927289936577,"type":"Company","associableId":373,"cityId":18455},{"id":309,"name":"Harman Connected Services","lat":18.5813229,"lon":73.7384524,"type":"Company","associableId":384,"cityId":18455},{"id":306,"name":"GSN Games","lat":12.927264774428139,"lon":77.68274903297426,"type":"Company","associableId":381,"cityId":18326},{"id":299,"name":"Rishabh Software","lat":22.2684553,"lon":73.1443937,"type":"Company","associableId":374,"cityId":18249},{"id":304,"name":"Asian Hardware","lat":19.229394,"lon":73.1334349,"type":"Company","associableId":379,"cityId":18460},{"id":300,"name":"T A T A Communications - UK","lat":51.22678212224148,"lon":-2.9645758867263794,"type":"Company","associableId":375,"cityId":16329},{"id":301,"name":"Elemental motor works ","lat":12.903769228813102,"lon":77.52449333667757,"type":"Company","associableId":376,"cityId":18326},{"id":305,"name":"Reliance Jio Infocomm","lat":12.921374476163574,"lon":77.66426373629658,"type":"Company","associableId":380,"cityId":18326},{"id":314,"name":"Robert Bosch - OMTP","lat":12.8914725330998,"lon":77.6376036999318,"type":"Company","associableId":389,"cityId":18326},{"id":308,"name":"GSN GAMES","lat":13.029896133602481,"lon":77.58832454681398,"type":"Company","associableId":383,"cityId":18323},{"id":307,"name":"Deutsche Bank","lat":18.5225855,"lon":73.8741302,"type":"Company","associableId":382,"cityId":18455},{"id":311,"name":"Synaptics India","lat":12.925839642719398,"lon":77.68065690994264,"type":"Company","associableId":386,"cityId":18326},{"id":315,"name":"Oil States Industries India","lat":19.099587,"lon":73.126398,"type":"Company","associableId":390,"cityId":18445},{"id":318,"name":"Siemens Healthineers ","lat":12.846120009556387,"lon":77.67845685990098,"type":"Company","associableId":393,"cityId":18326},{"id":319,"name":"Robert Bosch Engineering and Business Solutions India Pvt Ltd","lat":12.937109920593617,"lon":77.59698485489936,"type":"Company","associableId":394,"cityId":18326},{"id":320,"name":"Publicis Sapient","lat":12.9816194,"lon":77.6970453,"type":"Company","associableId":395,"cityId":18326},{"id":322,"name":"Tusker Materials Handling","lat":18.63967289915119,"lon":73.83671611547472,"type":"Company","associableId":397,"cityId":18455},{"id":323,"name":"EFI India","lat":12.9719127,"lon":77.7185381,"type":"Company","associableId":398,"cityId":18323},{"id":324,"name":"JSW Bengaluru Football Club","lat":12.968814093466401,"lon":77.61149883270264,"type":"Company","associableId":399,"cityId":18326},{"id":325,"name":"Amadeus Labs Marthahalli","lat":15.966610400903184,"lon":75.92857360839845,"type":"Company","associableId":400,"cityId":18323},{"id":326,"name":"Alphabricks Techonology Pvt Ltd","lat":18.568744622171124,"lon":73.90838742256166,"type":"Company","associableId":401,"cityId":18455},{"id":344,"name":"ZiniosEdge","lat":12.973318487687703,"lon":77.60935485335723,"type":"Company","associableId":419,"cityId":18326},{"id":327,"name":"Cybage Software","lat":18.545941247481363,"lon":73.91230881214143,"type":"Company","associableId":402,"cityId":18455},{"id":328,"name":"Varroc Polymer - Symphony","lat":18.5441719,"lon":73.8385866,"type":"Company","associableId":403,"cityId":18455},{"id":329,"name":"MORGAN STANLEY - Goregaon (E)","lat":19.17017649050098,"lon":72.86028313610588,"type":"Company","associableId":404,"cityId":18445},{"id":355,"name":"Accenture - Prestige Technopolis","lat":12.936746025976447,"lon":77.60745942592621,"type":"Company","associableId":430,"cityId":18326},{"id":330,"name":"Sabertooth Technologies","lat":21.148633,"lon":79.0664235,"type":"Company","associableId":405,"cityId":18446},{"id":331,"name":"HSBC - Pune","lat":18.548789293038688,"lon":73.88949394226076,"type":"Company","associableId":406,"cityId":18455},{"id":347,"name":"Zephyr Peacock","lat":12.9799982,"lon":77.6409353,"type":"Company","associableId":422,"cityId":18326},{"id":332,"name":"Harman international India","lat":18.6152367,"lon":73.8141563,"type":"Company","associableId":407,"cityId":18455},{"id":333,"name":"Mypromovideos.com","lat":11.008205584755121,"lon":76.97479873895647,"type":"Company","associableId":408,"cityId":18587},{"id":334,"name":"bigtec labs","lat":12.983095443960568,"lon":77.55952298641206,"type":"Company","associableId":409,"cityId":18326},{"id":335,"name":"State Street","lat":12.994222061261677,"lon":77.66115965267092,"type":"Company","associableId":410,"cityId":18326},{"id":285,"name":"J P Morgan Chase - EGL","lat":12.946396953435126,"lon":77.64661431312562,"type":"Company","associableId":361,"cityId":18326},{"id":336,"name":"ITC LSTC - Peenya","lat":13.0417901,"lon":77.5228878,"type":"Company","associableId":411,"cityId":18326},{"id":337,"name":"Srishti Institute of Art Design and Technology","lat":13.104223815978129,"lon":77.57291793823244,"type":"Company","associableId":412,"cityId":18326},{"id":338,"name":"DRDO","lat":12.979916777993298,"lon":77.65135022364122,"type":"Company","associableId":413,"cityId":18326},{"id":363,"name":"Avtec","lat":12.691797740511518,"lon":77.77860045433046,"type":"Company","associableId":438,"cityId":18326},{"id":339,"name":"myApps Solutions","lat":12.9020604,"lon":77.600786,"type":"Company","associableId":414,"cityId":18326},{"id":356,"name":"Schneider Electric India - Whitefield","lat":13.0394522,"lon":77.7580034,"type":"Company","associableId":431,"cityId":18326},{"id":341,"name":"Ashok Leyland","lat":13.01222688318415,"lon":80.22165834903718,"type":"Company","associableId":416,"cityId":18089},{"id":350,"name":"Wowlabz","lat":12.9651481,"lon":77.6393809,"type":"Company","associableId":425,"cityId":18326},{"id":340,"name":"Lavanya sai steels","lat":16.5131131,"lon":80.62649,"type":"Company","associableId":415,"cityId":18089},{"id":348,"name":"Cognizant Technologies - EQP","lat":18.586450224974076,"lon":73.69675040236872,"type":"Company","associableId":423,"cityId":18454},{"id":351,"name":"Mindtree ","lat":12.919343687385773,"lon":77.50084590905318,"type":"Company","associableId":426,"cityId":18326},{"id":357,"name":"Alphabricks Pvt Ltd","lat":18.56850200431569,"lon":73.90826005954297,"type":"Company","associableId":432,"cityId":18455},{"id":352,"name":"Log9 Materials","lat":13.03280716446036,"lon":77.56455391634518,"type":"Company","associableId":427,"cityId":18326},{"id":353,"name":"Huawei","lat":12.9694983,"lon":77.726009,"type":"Company","associableId":428,"cityId":18326},{"id":354,"name":"Silver Touch Technologies","lat":23.0216811,"lon":72.5546345,"type":"Company","associableId":429,"cityId":18220},{"id":359,"name":"Robert Bosch - EC","lat":12.838358755087866,"lon":77.66154885226571,"type":"Company","associableId":434,"cityId":18326},{"id":364,"name":"[24]7.ai","lat":12.943950460576943,"lon":77.69587844610216,"type":"Company","associableId":439,"cityId":18326},{"id":360,"name":"Swiss Re Global Business Solutions India","lat":12.9509896,"lon":77.642203,"type":"Company","associableId":435,"cityId":18326},{"id":361,"name":"ITC Infotech ","lat":12.997908472165241,"lon":77.62576768174769,"type":"Company","associableId":436,"cityId":18326},{"id":369,"name":"Nagadevanahalli Govt library","lat":12.9457274,"lon":77.4875419,"type":"Company","associableId":444,"cityId":18326},{"id":362,"name":"Bank of Baroda  - MG road","lat":12.973081010411752,"lon":77.61919140815736,"type":"Company","associableId":437,"cityId":18326},{"id":365,"name":"SYMMETRICS DEVELOPMENT SERVICES","lat":12.99102754173413,"lon":77.61868638678608,"type":"Company","associableId":440,"cityId":18326},{"id":366,"name":"Bounce ","lat":12.91563865839851,"lon":77.59890586137773,"type":"Company","associableId":441,"cityId":18326},{"id":370,"name":"Airwood","lat":12.956573279157876,"lon":77.64172196388246,"type":"Company","associableId":445,"cityId":18326},{"id":367,"name":"Ensyde","lat":12.933854,"lon":77.630981,"type":"Company","associableId":442,"cityId":18326},{"id":368,"name":"Biome environmental solutions","lat":13.07061860796191,"lon":77.55391308642174,"type":"Company","associableId":443,"cityId":18326},{"id":371,"name":"Oracle India - Commerce @ Mantri","lat":12.9126256,"lon":77.6003046,"type":"Company","associableId":446,"cityId":18326},{"id":374,"name":"Inter Public Group ( IPG)","lat":12.9821587,"lon":77.6235054,"type":"Company","associableId":449,"cityId":18326},{"id":372,"name":"Cadence Design Systems - Ecoworld","lat":12.924396827274627,"lon":77.68849909451093,"type":"Company","associableId":447,"cityId":18326},{"id":375,"name":"Cognizant Technology Solutions - Unitech","lat":22.5756066,"lon":88.482382,"type":"Company","associableId":450,"cityId":18765},{"id":376,"name":"Appnomic Systems","lat":12.9549926,"lon":77.6801542,"type":"Company","associableId":451,"cityId":18326},{"id":377,"name":"iRely Soft Services","lat":12.990822742755494,"lon":77.59391631398104,"type":"Company","associableId":452,"cityId":18326},{"id":379,"name":"Crankmeister Bicycle Works","lat":13.000161940407166,"lon":77.61807024478914,"type":"Company","associableId":454,"cityId":18326},{"id":378,"name":"Pace Setter Business Advisory","lat":13.114798431328444,"lon":77.57880538702013,"type":"Company","associableId":453,"cityId":18326},{"id":380,"name":"Nithin Research Center","lat":13.026509469991447,"lon":77.50681113961036,"type":"Company","associableId":455,"cityId":18326},{"id":381,"name":"RMZ Corp","lat":12.982832078543806,"lon":77.62470385059716,"type":"Company","associableId":456,"cityId":18326},{"id":408,"name":"OIL AND NATURAL GAS CORPORATION LIMITED","lat":19.048569594268972,"lon":72.85758376121522,"type":"Company","associableId":483,"cityId":18445},{"id":384,"name":"--","lat":12.976456704432254,"lon":77.61875152587892,"type":"Company","associableId":459,"cityId":18326},{"id":397,"name":"ALD Automotive","lat":19.1987623,"lon":72.9542683,"type":"Company","associableId":472,"cityId":18460},{"id":382,"name":"Automatad","lat":12.9123199,"lon":77.6402485,"type":"Company","associableId":457,"cityId":18326},{"id":383,"name":"Printo Document Services","lat":12.8892684,"lon":77.63991,"type":"Company","associableId":458,"cityId":18326},{"id":416,"name":"Springboard - WeWork","lat":12.925457,"lon":77.674906,"type":"Company","associableId":491,"cityId":18326},{"id":399,"name":"Log9 Materials","lat":13.072969272250148,"lon":77.59370058736751,"type":"Company","associableId":474,"cityId":18326},{"id":387,"name":"SYNERGOS ","lat":12.9538054,"lon":77.6232077,"type":"Company","associableId":462,"cityId":18326},{"id":400,"name":" Ernst & Young - BWTC","lat":12.985033016903513,"lon":77.69493967196468,"type":"Company","associableId":475,"cityId":18326},{"id":386,"name":"Tarams Software","lat":12.9223715,"lon":77.6364052,"type":"Company","associableId":461,"cityId":18326},{"id":385,"name":"Decathlon Sports India - Vizag","lat":17.743512775234795,"lon":83.26025426376873,"type":"Company","associableId":460,"cityId":18090},{"id":388,"name":"Remedico","lat":12.97064374127448,"lon":77.63792663812637,"type":"Company","associableId":463,"cityId":18326},{"id":398,"name":"Mulberry Lifestyle","lat":23.3817335,"lon":85.3687306,"type":"Company","associableId":473,"cityId":18318},{"id":389,"name":"Smart Wireless Computing ","lat":12.969201,"lon":77.613024,"type":"Company","associableId":464,"cityId":18326},{"id":390,"name":"Societe Generale Pritech ","lat":12.922399275301759,"lon":77.68204629421236,"type":"Company","associableId":465,"cityId":18326},{"id":358,"name":"Robert Bosch - GTP","lat":11.076114891070295,"lon":77.03629910929523,"type":"Company","associableId":433,"cityId":18587},{"id":409,"name":"Shri Shivaji Science College ","lat":20.9502388,"lon":77.7761402,"type":"Company","associableId":484,"cityId":18430},{"id":392,"name":"Academy for Severe Handicaps and Autism","lat":12.9976651,"lon":77.5334736,"type":"Company","associableId":467,"cityId":18326},{"id":414,"name":"ONGC - Mumbai","lat":19.048569594268972,"lon":72.85765886306764,"type":"Company","associableId":489,"cityId":18445},{"id":394,"name":"Bristlecone - Whitefield","lat":12.975714409150656,"lon":77.71220505237581,"type":"Company","associableId":469,"cityId":18326},{"id":395,"name":"Padmavathi International ","lat":12.915680487990599,"lon":77.64479577541351,"type":"Company","associableId":470,"cityId":18326},{"id":401,"name":"HiveMinds","lat":12.9755187,"lon":77.6041414,"type":"Company","associableId":476,"cityId":18326},{"id":396,"name":"Reserve Bank of India - Bengaluru","lat":12.971809979185167,"lon":77.5872302055359,"type":"Company","associableId":471,"cityId":18326},{"id":402,"name":"RMIT International University Hanoi Campus","lat":21.0296258,"lon":105.8114544,"type":"Company","associableId":477,"cityId":35908},{"id":403,"name":"Tydy","lat":12.974914609641862,"lon":77.61788517236711,"type":"Company","associableId":478,"cityId":18326},{"id":404,"name":"Synopsys","lat":28.564743046952348,"lon":77.42120360489935,"type":"Company","associableId":479,"cityId":18714},{"id":412,"name":"ClearTax","lat":12.899256606215907,"lon":77.63136327266695,"type":"Company","associableId":487,"cityId":18326},{"id":405,"name":"Sri Varu power tools co","lat":12.964293,"lon":77.578926,"type":"Company","associableId":480,"cityId":18326},{"id":413,"name":"Finastra Software Solutions","lat":12.982436805284877,"lon":77.69733488559724,"type":"Company","associableId":488,"cityId":18326},{"id":393,"name":"SanDisk India DDC","lat":12.94242431155093,"lon":77.69473012536766,"type":"Company","associableId":468,"cityId":18326},{"id":407,"name":"SimplyFI Softech ","lat":12.986288,"lon":77.735636,"type":"Company","associableId":482,"cityId":18326},{"id":410,"name":"Microsoft - Manyata","lat":13.0515195,"lon":77.6202595,"type":"Company","associableId":485,"cityId":18326},{"id":421,"name":"massgenie","lat":10.763159330300518,"lon":106.67518615722658,"type":"Company","associableId":496,"cityId":35900},{"id":411,"name":"Strand Life Sciences","lat":13.051344,"lon":77.5953219,"type":"Company","associableId":486,"cityId":18326},{"id":418,"name":"Byju's - Bengaluru","lat":12.9327697,"lon":77.603679,"type":"Company","associableId":493,"cityId":18326},{"id":406,"name":"Union Bank of India - Kota","lat":25.1521808,"lon":75.8563009,"type":"Company","associableId":481,"cityId":18570},{"id":415,"name":"Western Digital India","lat":12.94205008193648,"lon":77.69408991560341,"type":"Company","associableId":490,"cityId":18326},{"id":419,"name":"Tech Mahindra - ELCOT SEZ","lat":12.9104099,"lon":80.2213486,"type":"Company","associableId":494,"cityId":18586},{"id":417,"name":"Corp Placements","lat":12.9698794,"lon":77.6405514,"type":"Company","associableId":492,"cityId":18323},{"id":422,"name":"Vin Kim st nhn dn thnh ph H Ni","lat":21.0281550431831,"lon":105.7881233096123,"type":"Company","associableId":497,"cityId":35908},{"id":420,"name":"MassGenie Asia","lat":21.0295164,"lon":105.7851015,"type":"Company","associableId":495,"cityId":35908},{"id":423,"name":"L&T Construction - Chennai","lat":13.02347578111342,"lon":80.17900098455358,"type":"Company","associableId":498,"cityId":18586},{"id":424,"name":"UNDP India","lat":28.5925105,"lon":77.2229058,"type":"Company","associableId":499,"cityId":18215},{"id":426,"name":"Indepent/ Freelancer","lat":28.60743139267596,"lon":77.2606658935547,"type":"Company","associableId":501,"cityId":18215},{"id":427,"name":"Paramun Engineering Metal Crafts","lat":10.17819676879646,"lon":76.3740321993828,"type":"Company","associableId":502,"cityId":18363},{"id":428,"name":"Mustru Publishing","lat":13.02299732417713,"lon":77.57783174514772,"type":"Company","associableId":503,"cityId":18326},{"id":429,"name":"QUALITY COUNCIL OF INDIA","lat":28.627562723592884,"lon":77.24190384149553,"type":"Company","associableId":504,"cityId":18215},{"id":430,"name":"MSEB - Kalwa","lat":19.1714609,"lon":72.9976428,"type":"Company","associableId":505,"cityId":18460},{"id":450,"name":"Bengaluru Smart city ","lat":12.990892338691717,"lon":77.59715652462546,"type":"Company","associableId":517,"cityId":18326},{"id":433,"name":"","lat":13.030580031081646,"lon":77.63653457164253,"type":"StolenBicycle","associableId":3,"cityId":null},{"id":434,"name":"","lat":13.0665133,"lon":77.52428929999999,"type":"StolenBicycle","associableId":4,"cityId":null},{"id":460,"name":"Atria University","lat":13.03261692940981,"lon":77.59265899658205,"type":"Company","associableId":527,"cityId":18326},{"id":435,"name":"ANZ Bank - Manyata","lat":13.046917600722635,"lon":77.62130230665208,"type":"Company","associableId":506,"cityId":18326},{"id":436,"name":"","lat":12.925959897865864,"lon":77.67231523990633,"type":"StolenBicycle","associableId":5,"cityId":null},{"id":451,"name":"Ecozen solutions - Pune","lat":18.625517,"lon":73.745594,"type":"Company","associableId":518,"cityId":18449},{"id":437,"name":"Mphasis - Mahadevapura","lat":12.9825907,"lon":77.6940713,"type":"Company","associableId":507,"cityId":18326},{"id":438,"name":"","lat":12.938985937009695,"lon":77.55617553998717,"type":"StolenBicycle","associableId":6,"cityId":null},{"id":439,"name":"","lat":12.903889494581948,"lon":77.69043731663261,"type":"StolenBicycle","associableId":7,"cityId":null},{"id":441,"name":"Sundaram Mutual ","lat":13.057970213408186,"lon":80.26170909404756,"type":"Company","associableId":508,"cityId":18586},{"id":461,"name":"JAIN HERITAGE SCHOOL","lat":15.823098955786305,"lon":74.49329137802125,"type":"Company","associableId":528,"cityId":18325},{"id":442,"name":"MES - Jabalpur","lat":23.191278563641767,"lon":79.99800942256117,"type":"Company","associableId":509,"cityId":18397},{"id":452,"name":"Rashtriya Chemicals & Fertilizers - Thal","lat":18.7011883,"lon":72.8655789,"type":"Company","associableId":519,"cityId":18429},{"id":443,"name":"SKF India - Salempur Mahdood","lat":29.947479,"lon":78.048025,"type":"Company","associableId":510,"cityId":18738},{"id":444,"name":"Freelance","lat":31.63528640838765,"lon":74.87512109277306,"type":"Company","associableId":511,"cityId":18545},{"id":445,"name":"St. John's sr. Sec. School","lat":23.814243535360458,"lon":79.44247970237485,"type":"Company","associableId":512,"cityId":18387},{"id":458,"name":"SRK House","lat":21.2225645,"lon":72.8366867,"type":"Company","associableId":525,"cityId":18247},{"id":448,"name":"Mistral Solutions","lat":12.959477451963743,"lon":77.64119982632111,"type":"Company","associableId":515,"cityId":18326},{"id":391,"name":"Societe Generale - Pritech Park","lat":12.9225862166019,"lon":77.68191302195191,"type":"Company","associableId":466,"cityId":18326},{"id":449,"name":"Columbia AsiaReferral Hospital","lat":13.0146773,"lon":77.5558772,"type":"Company","associableId":516,"cityId":18326},{"id":447,"name":"Meraki design studio","lat":22.2980496,"lon":73.171433,"type":"Company","associableId":514,"cityId":18249},{"id":455,"name":"JHS And Associates LLP","lat":19.112138590659715,"lon":72.86815971136095,"type":"Company","associableId":522,"cityId":18445},{"id":446,"name":"IDFC First Bank","lat":12.9188658,"lon":77.6700914,"type":"Company","associableId":513,"cityId":18326},{"id":462,"name":"St. John's National Academy of Health Sciences","lat":12.929300876381058,"lon":77.61859595775606,"type":"Company","associableId":529,"cityId":18326},{"id":454,"name":"Tata Cleantech Capital Limited- Lower Parel","lat":18.999224,"lon":72.8287219,"type":"Company","associableId":521,"cityId":18445},{"id":453,"name":"SVNIT","lat":21.1619602,"lon":72.7850744,"type":"Company","associableId":520,"cityId":18247},{"id":456,"name":"Swati Enterprises","lat":19.94817631017696,"lon":73.73740410801476,"type":"Company","associableId":523,"cityId":18449},{"id":457,"name":"G SINGH DEGREE COLLEGE","lat":25.4739647,"lon":81.9668886,"type":"Company","associableId":524,"cityId":18718},{"id":459,"name":"Xyz","lat":25.247821527188304,"lon":86.98636143933983,"type":"Company","associableId":526,"cityId":18152},{"id":463,"name":"ESIC MEDICAL COLLEGE AND HOSPITAL ","lat":13.0342533,"lon":80.2069338,"type":"Company","associableId":530,"cityId":18586},{"id":472,"name":"Tropic responses","lat":12.970961159193674,"lon":77.6337484250626,"type":"Company","associableId":539,"cityId":18326},{"id":464,"name":"CBIC","lat":12.983555489165562,"lon":77.60325353822725,"type":"Company","associableId":531,"cityId":18326},{"id":465,"name":"Pirimid Fintech","lat":12.929028493307348,"lon":77.63302308512453,"type":"Company","associableId":532,"cityId":18326},{"id":466,"name":"St Lawrence Sr Sec School","lat":29.19416993064876,"lon":79.50256167023784,"type":"Company","associableId":533,"cityId":18740},{"id":469,"name":"Systemantics India Pvt Ltd.","lat":12.9231328,"lon":77.5919521,"type":"Company","associableId":536,"cityId":18326},{"id":467,"name":"Coca-Cola - Ludhiania","lat":30.8770825,"lon":75.901801,"type":"Company","associableId":534,"cityId":18547},{"id":473,"name":"frontviewinteriors","lat":12.854347658941673,"lon":74.87668848018076,"type":"Company","associableId":540,"cityId":18347},{"id":470,"name":"Payhuddle Solutions","lat":12.9194471,"lon":77.5835533,"type":"Company","associableId":537,"cityId":18326},{"id":468,"name":"Diligent Consultancy","lat":17.396198352618967,"lon":78.42223304978809,"type":"Company","associableId":535,"cityId":18629},{"id":476,"name":"Council on Energy Environment and Water","lat":28.543530282882497,"lon":77.17766225321613,"type":"Company","associableId":543,"cityId":18215},{"id":477,"name":"Prestige estates properties private limited","lat":12.960857582828337,"lon":77.59901046752931,"type":"Company","associableId":544,"cityId":18326},{"id":1373,"name":"Apparel Park","lat":23.0107369,"lon":72.617746,"type":"TransitPoint","associableId":675,"cityId":42},{"id":474,"name":"SJS Enterprises","lat":12.841908598135499,"lon":77.50117745314841,"type":"Company","associableId":541,"cityId":18326},{"id":471,"name":"Kotak Mahindra Bank - MG Road","lat":12.972902535265273,"lon":77.61615205872532,"type":"Company","associableId":538,"cityId":18326},{"id":479,"name":"Seed Infotech Ltd","lat":18.5021355,"lon":73.8255938,"type":"Company","associableId":546,"cityId":18455},{"id":478,"name":"BLDEA's V.P. Dr. P. G. Halakatti College of Engg. & Tech.","lat":16.848462169190796,"lon":75.71749446709565,"type":"Company","associableId":545,"cityId":18355},{"id":481,"name":"Gogoles43","lat":39.330048552942415,"lon":-119.93499755859376,"type":"Company","associableId":548,"cityId":19893},{"id":482,"name":"Go2345681","lat":39.330048552942415,"lon":-119.93499755859376,"type":"Company","associableId":549,"cityId":19893},{"id":483,"name":"Go2345678","lat":39.330048552942415,"lon":-119.93499755859376,"type":"Company","associableId":550,"cityId":19893},{"id":484,"name":"Freewheeling Sports & Fitness","lat":12.956309397465809,"lon":77.64790177312535,"type":"Company","associableId":551,"cityId":18326},{"id":485,"name":"Asha Enterprises","lat":15.86431357354814,"lon":74.5087677242009,"type":"Company","associableId":552,"cityId":18325},{"id":487,"name":"Airtel Digital","lat":12.960193657500136,"lon":77.6433151960373,"type":"Company","associableId":554,"cityId":18326},{"id":502,"name":"Cycle to work","lat":21.71219812021616,"lon":72.97889470919019,"type":"Company","associableId":569,"cityId":18224},{"id":490,"name":"Philips Innovation Campus","lat":13.043404700046919,"lon":77.62125563598603,"type":"Company","associableId":557,"cityId":18326},{"id":491,"name":"V A Industries","lat":13.064512709080843,"lon":80.29951214790346,"type":"Company","associableId":558,"cityId":18586},{"id":503,"name":"RV University","lat":12.923314189567481,"lon":77.49965608119966,"type":"Company","associableId":570,"cityId":18326},{"id":489,"name":"Philips Innovation Campus","lat":13.0433008,"lon":77.6212347,"type":"Company","associableId":556,"cityId":18326},{"id":514,"name":"Kaplan India","lat":12.9859824,"lon":77.5880808,"type":"Company","associableId":581,"cityId":18326},{"id":488,"name":"Electronic Arts Inc","lat":45.5006087,"lon":-73.5770249,"type":"Company","associableId":555,"cityId":4427},{"id":492,"name":"Reckitt","lat":17.4308801,"lon":78.3756485,"type":"Company","associableId":559,"cityId":18629},{"id":505,"name":"NeilsenIQ","lat":1,"lon":1,"type":"Company","associableId":572,"cityId":18445},{"id":486,"name":"Gandharvangal Mahadeva Temple","lat":9.749957,"lon":76.395915,"type":"Company","associableId":553,"cityId":18365},{"id":509,"name":"Kyndryl India - Manyata","lat":13.048761,"lon":77.6222719,"type":"Company","associableId":576,"cityId":18326},{"id":493,"name":"Infosys - Sholinganallur","lat":12.8912974,"lon":80.2277806,"type":"Company","associableId":560,"cityId":18586},{"id":495,"name":"Novozymes South Asia Pvt Ltd","lat":18.87588782949808,"lon":73.1879425031366,"type":"Company","associableId":562,"cityId":18445},{"id":496,"name":"Syngene International Limited","lat":12.806858662059591,"lon":77.66291143523632,"type":"Company","associableId":563,"cityId":18326},{"id":498,"name":"Syngene International Limited","lat":12.80669594172255,"lon":77.66289532184602,"type":"Company","associableId":565,"cityId":18326},{"id":504,"name":"Tata Motors - Pimpri","lat":18.65137873675753,"lon":73.8108140230179,"type":"Company","associableId":571,"cityId":18454},{"id":501,"name":"Yanfeng India Automotive Interiors Systems Pvt. Ltd.","lat":18.615088523192878,"lon":73.81387656923835,"type":"Company","associableId":568,"cityId":18455},{"id":500,"name":"EEPC INDIA","lat":28.626575,"lon":77.2216245,"type":"Company","associableId":567,"cityId":18215},{"id":101,"name":"Mobile Premier League","lat":12.9238204,"lon":77.6676475,"type":"Company","associableId":96,"cityId":18326},{"id":497,"name":"National Research Development Council","lat":28.55518,"lon":77.2375892,"type":"Company","associableId":564,"cityId":18215},{"id":507,"name":"Thales","lat":28.5742632,"lon":77.3132422,"type":"Company","associableId":574,"cityId":18685},{"id":499,"name":"Alembic Pharmaceutical Ltd ","lat":22.4532703,"lon":73.4681081,"type":"Company","associableId":566,"cityId":18249},{"id":494,"name":"Novozymes South Asia Pvt ltd","lat":18.8710987,"lon":73.1885092,"type":"Company","associableId":561,"cityId":18445},{"id":506,"name":"BEL CHENNAI","lat":13.0233747,"lon":80.1939063,"type":"Company","associableId":573,"cityId":18586},{"id":518,"name":"Govt college of art and craft","lat":23.8698799,"lon":91.2847958,"type":"Company","associableId":585,"cityId":18656},{"id":511,"name":"Thales","lat":28.7558612397589,"lon":77.15753172989936,"type":"Company","associableId":578,"cityId":18714},{"id":516,"name":"Akshayakalpa  Farms & Foods Pvt Ltd","lat":13.2604616,"lon":76.4545776,"type":"Company","associableId":583,"cityId":18352},{"id":515,"name":"Akshayakalpa Milk and Foods","lat":13.2604616,"lon":76.4545776,"type":"Company","associableId":582,"cityId":18352},{"id":512,"name":"Uva Digital","lat":12.9673113,"lon":77.6425825,"type":"Company","associableId":579,"cityId":18326},{"id":513,"name":"Mobisy Technologies Pvt Ltd","lat":12.9235822,"lon":77.6758469,"type":"Company","associableId":580,"cityId":18326},{"id":521,"name":"Wint Wealth","lat":12.903725599776696,"lon":77.60117322233783,"type":"Company","associableId":588,"cityId":18326},{"id":519,"name":"Associated Industrial Concern","lat":12.9647161,"lon":77.5796957,"type":"Company","associableId":586,"cityId":18326},{"id":520,"name":"Siant-gobain India pvt ltd (R&D)","lat":12.990187721926965,"lon":80.24316537337656,"type":"Company","associableId":587,"cityId":18586},{"id":522,"name":"Adobe India - PTP","lat":12.94391909193702,"lon":77.69692766654771,"type":"Company","associableId":589,"cityId":18326},{"id":523,"name":"DataZeneral","lat":12.9171479,"lon":77.6115103,"type":"Company","associableId":590,"cityId":18326},{"id":524,"name":"Silvassa Smart City Limited","lat":20.28514342268539,"lon":73.00338284197389,"type":"Company","associableId":591,"cityId":18212},{"id":550,"name":"Autodrome","lat":13.004743951171791,"lon":77.58343890309335,"type":"Company","associableId":617,"cityId":18326},{"id":536,"name":"Vedanta Limited - Chinchpada","lat":20.203473231441404,"lon":73.0026903365821,"type":"Company","associableId":603,"cityId":18212},{"id":525,"name":"Ruckus Networks","lat":12.9525346,"lon":77.6995536,"type":"Company","associableId":592,"cityId":18326},{"id":528,"name":"CBRE South Asia Pvt Ltd ","lat":12.951406729394323,"lon":77.64058009363855,"type":"Company","associableId":595,"cityId":18326},{"id":529,"name":"OSME keonjhar","lat":21.63711004547127,"lon":85.62182537199989,"type":"Company","associableId":596,"cityId":18529},{"id":530,"name":"Lead School ","lat":12.930890309309037,"lon":77.61076211940235,"type":"Company","associableId":597,"cityId":18326},{"id":531,"name":"Microsoft - Prestige Ferns","lat":12.921980990316923,"lon":77.6687779055778,"type":"Company","associableId":598,"cityId":18326},{"id":532,"name":"Upflowy","lat":12.887183927571542,"lon":77.59750670583159,"type":"Company","associableId":599,"cityId":18326},{"id":537,"name":"Capgemini - Nanakaramguda","lat":17.420993549325487,"lon":78.33819210665047,"type":"Company","associableId":604,"cityId":18629},{"id":1374,"name":"Commerce Six Road","lat":23.0413415,"lon":72.5518656,"type":"TransitPoint","associableId":676,"cityId":42},{"id":1375,"name":"Doordarshan Kendra","lat":23.0499208,"lon":72.518563,"type":"TransitPoint","associableId":677,"cityId":42},{"id":547,"name":"Variable Energy Cyclotron Centre","lat":22.60194731910899,"lon":88.41878552193978,"type":"Company","associableId":614,"cityId":18765},{"id":535,"name":"Sterlite Technologies Ltd","lat":20.2201939,"lon":73.0298751,"type":"Company","associableId":602,"cityId":18212},{"id":526,"name":"Bosch Global Software Technologies - KGISL Tech Park","lat":11.102610966947717,"lon":76.98770552574159,"type":"Company","associableId":593,"cityId":18618},{"id":541,"name":"Hindustan Unilever Limited ","lat":20.288967475660932,"lon":73.0228614807129,"type":"Company","associableId":608,"cityId":18212},{"id":543,"name":"Reliance Industries - Bhilad","lat":20.274918649357467,"lon":72.8881072998047,"type":"Company","associableId":610,"cityId":18212},{"id":517,"name":"Tech Mahindra","lat":12.8507651,"lon":77.6775728,"type":"Company","associableId":584,"cityId":18326},{"id":475,"name":"Genpact","lat":26.77929870819789,"lon":75.8402445070493,"type":"Company","associableId":542,"cityId":18563},{"id":539,"name":"MGM HOSPITALS ","lat":13.74091352823439,"lon":79.72036702190964,"type":"Company","associableId":606,"cityId":18075},{"id":540,"name":"314e","lat":12.9964873849788,"lon":77.69540905952455,"type":"Company","associableId":607,"cityId":18326},{"id":548,"name":"Ola ","lat":12.931580454207468,"lon":77.6164026311966,"type":"Company","associableId":615,"cityId":18326},{"id":556,"name":"Qualcomm - Duplicate","lat":12.982405441494882,"lon":77.69843459129335,"type":"Company","associableId":623,"cityId":18326},{"id":549,"name":"CBRE South Asia Pvt Ltd","lat":10.011550816112708,"lon":76.37142978300187,"type":"Company","associableId":616,"cityId":18363},{"id":508,"name":"Urban Morph","lat":13.036906591202415,"lon":77.57573318491269,"type":"Company","associableId":575,"cityId":18326},{"id":534,"name":"Bluestar India Limited","lat":20.325371757483804,"lon":72.97169360255728,"type":"Company","associableId":601,"cityId":18212},{"id":551,"name":"Upciti","lat":12.93397451134233,"lon":77.6099501347367,"type":"Company","associableId":618,"cityId":18326},{"id":552,"name":"Technicolor India","lat":12.986063185428282,"lon":77.73414759460755,"type":"Company","associableId":619,"cityId":18326},{"id":553,"name":"Mphasis - Global Village","lat":12.919915230909522,"lon":77.49909883257182,"type":"Company","associableId":620,"cityId":18326},{"id":555,"name":"Target Corporation ","lat":13.045720360254967,"lon":77.62021479690918,"type":"Company","associableId":622,"cityId":18326},{"id":557,"name":"CRMANTRA Technologies Pvt Ltd","lat":9.984526633174621,"lon":76.28170212655051,"type":"Company","associableId":624,"cityId":18363},{"id":558,"name":"Saipem India","lat":12.974240731909948,"lon":80.2423857449776,"type":"Company","associableId":625,"cityId":18586},{"id":559,"name":"Unique Computer ","lat":21.17208558547188,"lon":79.11675585090627,"type":"Company","associableId":626,"cityId":18446},{"id":561,"name":"Qualcomm - Duplicate","lat":12.982198442503279,"lon":77.69862710739848,"type":"Company","associableId":628,"cityId":18326},{"id":597,"name":"Urban morph - duplicate","lat":12.96255136855823,"lon":77.60055541992189,"type":"Company","associableId":664,"cityId":18326},{"id":562,"name":"Pravaig Dynamics ","lat":13.152375598186204,"lon":77.70870839965484,"type":"Company","associableId":629,"cityId":18326},{"id":573,"name":"Exxat","lat":12.956804300249823,"lon":77.6999029095935,"type":"Company","associableId":640,"cityId":18326},{"id":563,"name":"Zebra technologies India Pvt Ltd ","lat":12.9250146,"lon":77.6817969,"type":"Company","associableId":630,"cityId":18326},{"id":63,"name":"Qualcomm J Building - Bagmane Constellation ORR","lat":12.982299268668122,"lon":77.69826267780446,"type":"Company","associableId":58,"cityId":18326},{"id":574,"name":"Ittiam Systems Pvt. Ltd","lat":12.965238400051701,"lon":77.59843694155118,"type":"Company","associableId":641,"cityId":18326},{"id":134,"name":"Wipro - Sarjapur road","lat":12.9141915,"lon":77.6862082,"type":"Company","associableId":220,"cityId":18326},{"id":565,"name":"Wipro SEZ - Kodathi","lat":12.898022549245562,"lon":77.71208167076112,"type":"Company","associableId":632,"cityId":18326},{"id":575,"name":"Molex India Business Services - Kalyani Tech Park","lat":12.969025287754166,"lon":77.71760724295224,"type":"Company","associableId":642,"cityId":18326},{"id":576,"name":"Wells Fargo India","lat":12.93325548622402,"lon":77.690320286122,"type":"Company","associableId":643,"cityId":18326},{"id":577,"name":"Gaia Earth Sansad","lat":15.52923703803624,"lon":73.76698914027294,"type":"Company","associableId":644,"cityId":18216},{"id":595,"name":"United Nations Vietnam","lat":21.031277,"lon":105.8159187,"type":"Company","associableId":662,"cityId":35908},{"id":578,"name":"Silver Oaks International School","lat":12.8879314,"lon":77.7447326,"type":"Company","associableId":645,"cityId":18326},{"id":566,"name":"CRED - Main office","lat":12.970153658359656,"lon":77.64094819188685,"type":"Company","associableId":633,"cityId":18326},{"id":538,"name":"Ipca Laboratories - Athal","lat":20.257843421600874,"lon":72.96589871213763,"type":"Company","associableId":605,"cityId":18212},{"id":560,"name":"Qualcomm India - J Building - duplicate","lat":12.982346634377949,"lon":77.6984362959693,"type":"Company","associableId":627,"cityId":18326},{"id":579,"name":"Hindustan Aeronautics Limited (HAL)","lat":12.958594126911226,"lon":77.66959831567873,"type":"Company","associableId":646,"cityId":18326},{"id":569,"name":"Bangalore Metro Rail Corporation Limited","lat":12.988204688401549,"lon":77.64937137681466,"type":"Company","associableId":636,"cityId":18326},{"id":580,"name":"Astra Metal Systems","lat":15.367461222119758,"lon":73.93705755472185,"type":"Company","associableId":647,"cityId":18217},{"id":571,"name":"Ledger Services","lat":12.9365833,"lon":77.5787222,"type":"Company","associableId":638,"cityId":18326},{"id":588,"name":"Adage Automation","lat":15.3718011,"lon":73.9389314,"type":"Company","associableId":655,"cityId":18217},{"id":570,"name":"Ardes architects & Interior designers ","lat":12.9143906,"lon":77.6016121,"type":"Company","associableId":637,"cityId":18326},{"id":582,"name":"Delhivery","lat":15.527967682173996,"lon":73.79481524410949,"type":"Company","associableId":649,"cityId":18218},{"id":581,"name":"Persistent Systems","lat":15.365857162135216,"lon":73.93247133514828,"type":"Company","associableId":648,"cityId":18218},{"id":589,"name":"Capabl","lat":12.93487953110962,"lon":77.62952873838474,"type":"Company","associableId":656,"cityId":18326},{"id":583,"name":"ITDP India ","lat":13.018029539763306,"lon":80.26105252424787,"type":"Company","associableId":650,"cityId":18586},{"id":572,"name":"Vedanta Limited - Piparia","lat":20.285449899447688,"lon":72.98375536655342,"type":"Company","associableId":639,"cityId":18212},{"id":584,"name":"Sterlite Power Transmission Limited","lat":20.285425198229607,"lon":72.98355102539064,"type":"Company","associableId":651,"cityId":18212},{"id":585,"name":"NatWest group","lat":12.922340377906576,"lon":77.68540386558017,"type":"Company","associableId":652,"cityId":18326},{"id":586,"name":"Sato Shoji India","lat":13.01414073955811,"lon":80.19991636276247,"type":"Company","associableId":653,"cityId":18586},{"id":587,"name":"BHARAT HEAVY ELECTRICALS LTD","lat":13.013944958246396,"lon":77.56488208465919,"type":"Company","associableId":654,"cityId":18326},{"id":600,"name":"Analog  Devices","lat":12.991469412048149,"lon":77.65789368411379,"type":"Company","associableId":667,"cityId":18326},{"id":596,"name":"Bhilosa Industries - Rakholi","lat":20.225727672675433,"lon":73.03016312420368,"type":"Company","associableId":663,"cityId":18212},{"id":592,"name":"Mio","lat":10.774963999124356,"lon":106.69037958639089,"type":"Company","associableId":659,"cityId":35900},{"id":593,"name":"Keangnam","lat":21.01688154925328,"lon":105.78418178702046,"type":"Company","associableId":660,"cityId":35908},{"id":594,"name":"VSSIT","lat":20.996499857139234,"lon":105.84277544034182,"type":"Company","associableId":661,"cityId":35908},{"id":591,"name":"Central Vietnam Farmers' Union","lat":21.0285255733311,"lon":105.78341066837311,"type":"Company","associableId":658,"cityId":35908},{"id":590,"name":"Titan Technology","lat":10.810404667746244,"lon":106.66723493869313,"type":"Company","associableId":657,"cityId":35900},{"id":601,"name":"Analog Devices ","lat":12.991345009135603,"lon":77.65825848809936,"type":"Company","associableId":668,"cityId":18326},{"id":598,"name":"Limendo India  - Museum Rd.","lat":12.973564513320651,"lon":77.60370801197847,"type":"Company","associableId":665,"cityId":18326},{"id":599,"name":"Taurus BPO services","lat":12.959233176429391,"lon":77.65163458265307,"type":"Company","associableId":666,"cityId":18326},{"id":602,"name":"IIT Delhi","lat":28.54559586247813,"lon":77.19356775283815,"type":"Company","associableId":669,"cityId":18215},{"id":603,"name":"Ola Mobility Institute","lat":28.582072198995554,"lon":77.08928138405774,"type":"Company","associableId":670,"cityId":18215},{"id":604,"name":"KPMG Consulting and Assurance","lat":28.4933613,"lon":77.0884098,"type":"Company","associableId":671,"cityId":18258},{"id":605,"name":"Ranchi Smart City Corporation","lat":23.2961635076018,"lon":85.29189109718574,"type":"Company","associableId":672,"cityId":18318},{"id":606,"name":"Delhi Commission for Women","lat":28.62570162035892,"lon":77.24498905241491,"type":"Company","associableId":673,"cityId":18215},{"id":607,"name":"Parle Agro Pvt Ltd.","lat":20.233630281358842,"lon":73.05646419525148,"type":"Company","associableId":674,"cityId":18212},{"id":608,"name":"L&T Construction ","lat":21.174637722428198,"lon":73.56913703670826,"type":"Company","associableId":675,"cityId":18252},{"id":609,"name":"TCS","lat":null,"lon":null,"type":"Company","associableId":676,"cityId":18761},{"id":610,"name":"TCS - Candor Tech Space","lat":22.574072303523796,"lon":88.48251342773439,"type":"Company","associableId":677,"cityId":18769},{"id":629,"name":"Dabur India limited ","lat":24.53671298063465,"lon":81.31256103515626,"type":"Company","associableId":696,"cityId":18412},{"id":630,"name":"Dabur India limited ","lat":25.260842624760226,"lon":83.24478149414064,"type":"Company","associableId":697,"cityId":18676},{"id":611,"name":"TCPL PACKAGING LIMITED - MASAT","lat":20.247481527984878,"lon":73.00685926675833,"type":"Company","associableId":678,"cityId":18212},{"id":612,"name":"DNH SPINNERS PVT. LTD.","lat":20.157124228511552,"lon":73.00964355468751,"type":"Company","associableId":679,"cityId":18212},{"id":342,"name":"Ashok Leyland","lat":16.49914192248745,"lon":80.64881622791292,"type":"Company","associableId":417,"cityId":18089},{"id":613,"name":"Saksoft Limited","lat":12.969969386933917,"lon":80.24369132428673,"type":"Company","associableId":680,"cityId":18586},{"id":616,"name":"Chemcoplastic Industries - Sayali","lat":20.23410945853258,"lon":73.05196131049286,"type":"Company","associableId":683,"cityId":18212},{"id":614,"name":"Gremot Mobility","lat":12.990112189751972,"lon":77.7063310146332,"type":"Company","associableId":681,"cityId":18326},{"id":615,"name":"Alliantgroup","lat":17.431138626612317,"lon":78.37565006490566,"type":"Company","associableId":682,"cityId":18629},{"id":631,"name":"PEPPERL+FUCHS (VIETNAM) CO. LTD","lat":10.768078876852895,"lon":106.7414802560715,"type":"Company","associableId":698,"cityId":35900},{"id":632,"name":"Gulf oil Lubricants India Ltd.","lat":20.239900026466387,"lon":73.01638812473041,"type":"Company","associableId":699,"cityId":18212},{"id":619,"name":"Hamilton Houseware - Rakholi","lat":20.22423972292239,"lon":73.035043217806,"type":"Company","associableId":686,"cityId":18212},{"id":633,"name":"hamilton writing instruments pvt ltd","lat":20.289953663493097,"lon":72.98852920532228,"type":"Company","associableId":700,"cityId":18212},{"id":738,"name":"Jyothipuram","lat":12.9966546489965,"lon":77.6684045791626,"type":"TransitPoint","associableId":42,"cityId":1},{"id":617,"name":"Sunpharma - Pipariya ","lat":20.28646776328979,"lon":72.98640463139728,"type":"Company","associableId":684,"cityId":18212},{"id":688,"name":" Crown Enterprises ","lat":13.340099107776156,"lon":13.340099107776156,"type":"Company","associableId":749,"cityId":18352},{"id":620,"name":"Dabur India Ltd.","lat":20.234421526981286,"lon":73.04990311286748,"type":"Company","associableId":687,"cityId":18212},{"id":741,"name":"Kengeri Bus Terminal","lat":12.914692262006094,"lon":77.48771890997888,"type":"TransitPoint","associableId":45,"cityId":1},{"id":734,"name":"Jayanagar","lat":12.929667,"lon":77.58016,"type":"TransitPoint","associableId":38,"cityId":1},{"id":644,"name":"ADP","lat":18.5598266,"lon":73.9211105,"type":"Company","associableId":711,"cityId":18455},{"id":622,"name":"Sterlite Power Transmission Limited - duplicate","lat":20.28534469098353,"lon":72.9835081100464,"type":"Company","associableId":689,"cityId":18212},{"id":623,"name":"Kettukadha","lat":10.364937950874973,"lon":76.33145425538817,"type":"Company","associableId":690,"cityId":18372},{"id":624,"name":"AYM Syntex Limited - Rakholi","lat":20.22640217852115,"lon":73.03333282470705,"type":"Company","associableId":691,"cityId":18212},{"id":625,"name":"urban","lat":12.901772804517206,"lon":77.59235752922932,"type":"Company","associableId":692,"cityId":18326},{"id":626,"name":"Alfahive Pvt Ltd","lat":12.972985671150806,"lon":77.5994915531941,"type":"Company","associableId":693,"cityId":18326},{"id":627,"name":"EY","lat":18.554467816594762,"lon":73.89142260051241,"type":"Company","associableId":694,"cityId":18455},{"id":628,"name":"Dabur india limited ","lat":20.29182539048709,"lon":72.99316406250001,"type":"Company","associableId":695,"cityId":18212},{"id":637,"name":"Ujjain Smart City Limited","lat":23.16622127124642,"lon":75.80952120136061,"type":"Company","associableId":704,"cityId":18423},{"id":638,"name":"Indeed India Operations","lat":12.966344047582018,"lon":77.59885940483355,"type":"Company","associableId":705,"cityId":18326},{"id":639,"name":"Nutanix","lat":12.942087528462855,"lon":77.69395770921345,"type":"Company","associableId":706,"cityId":18326},{"id":640,"name":"SKF, GTCI","lat":12.822521743945236,"lon":77.68479639920972,"type":"Company","associableId":707,"cityId":18326},{"id":641,"name":"FDES Technologies","lat":17.433620021375845,"lon":78.4507654891113,"type":"Company","associableId":708,"cityId":18629},{"id":642,"name":"Bhilosa industries pvt Ltd","lat":20.186597987054938,"lon":73.21878869310449,"type":"Company","associableId":709,"cityId":18212},{"id":643,"name":"bhilosa industries private limited","lat":20.27395249418203,"lon":72.94097900390626,"type":"Company","associableId":710,"cityId":18212},{"id":646,"name":"Ampere Computing","lat":12.9368558190381,"lon":77.69141276060108,"type":"Company","associableId":713,"cityId":18326},{"id":645,"name":"Ampere Computing - duplicate","lat":12.93658813225052,"lon":77.69140418235813,"type":"Company","associableId":712,"cityId":18326},{"id":621,"name":"Apar Industries Ltd. - Rakholi","lat":20.227376108333452,"lon":73.01850713623394,"type":"Company","associableId":688,"cityId":18212},{"id":647,"name":"Bhilosa Industries - Naroli","lat":20.261190629953887,"lon":72.92346954345705,"type":"Company","associableId":714,"cityId":18212},{"id":648,"name":"Cyqler","lat":51.53027987529558,"lon":-0.1529934284561341,"type":"Company","associableId":715,"cityId":16331},{"id":735,"name":"Jayaprakash Nagar","lat":12.907288,"lon":77.573136,"type":"TransitPoint","associableId":39,"cityId":1},{"id":649,"name":"DNH SPINNERS PVT. LTD. - duplicate","lat":20.15768824309791,"lon":73.01204681396486,"type":"Company","associableId":716,"cityId":18212},{"id":650,"name":"Serrala Center of Excellence LLP","lat":18.535630671133617,"lon":73.82987060987809,"type":"Company","associableId":717,"cityId":18455},{"id":736,"name":"Jindal","lat":13.0545943850874,"lon":77.4815833568573,"type":"TransitPoint","associableId":40,"cityId":1},{"id":618,"name":"President Engineering Works - Dadra","lat":20.32617733212276,"lon":72.9609394062022,"type":"Company","associableId":685,"cityId":18212},{"id":737,"name":"Jnana Bharathi","lat":12.9353762187824,"lon":77.5121766328812,"type":"TransitPoint","associableId":41,"cityId":1},{"id":739,"name":"Kadugodi","lat":12.9857613445767,"lon":77.7465105056763,"type":"TransitPoint","associableId":43,"cityId":1},{"id":740,"name":"Kengeri","lat":12.9079523520074,"lon":77.4765032529831,"type":"TransitPoint","associableId":44,"cityId":1},{"id":744,"name":"Kundalahalli","lat":12.9775021869857,"lon":77.7150106430054,"type":"TransitPoint","associableId":48,"cityId":1},{"id":745,"name":"Mahakavi Kuvempu","lat":12.998456,"lon":77.556951,"type":"TransitPoint","associableId":49,"cityId":1},{"id":746,"name":"Lalbagh","lat":12.946355,"lon":77.58005,"type":"TransitPoint","associableId":50,"cityId":1},{"id":1376,"name":"Gandhigram","lat":23.0269361,"lon":72.56863,"type":"TransitPoint","associableId":678,"cityId":42},{"id":693,"name":"Embassy Manyata Business Park","lat":null,"lon":null,"type":"Campus","associableId":7,"cityId":null},{"id":655,"name":"Wualcomm","lat":17.441317333752842,"lon":78.38090138781098,"type":"Company","associableId":719,"cityId":18629},{"id":654,"name":"Qualcomm - Raheja Mindspace","lat":17.444433015117742,"lon":78.3794370841427,"type":"Company","associableId":718,"cityId":18629},{"id":656,"name":"Providence India","lat":17.432485868396974,"lon":78.3754130589292,"type":"Company","associableId":720,"cityId":18629},{"id":694,"name":"Embassy Golf Links Business Park","lat":null,"lon":null,"type":"Campus","associableId":8,"cityId":null},{"id":658,"name":"Tarento Technologies","lat":12.9328753,"lon":77.60288755327953,"type":"Company","associableId":722,"cityId":18326},{"id":657,"name":"SAP India - Madhapur","lat":17.437286066129538,"lon":78.38476037975852,"type":"Company","associableId":721,"cityId":18629},{"id":695,"name":"Embassy Tech Village","lat":null,"lon":null,"type":"Campus","associableId":9,"cityId":null},{"id":659,"name":"Trrayaam Foundation","lat":20.615505287441167,"lon":72.92597854098007,"type":"Company","associableId":723,"cityId":18250},{"id":757,"name":"Mysore Road","lat":12.946760551887516,"lon":77.53007903695108,"type":"TransitPoint","associableId":61,"cityId":1},{"id":663,"name":"IBC Knowledge Park","lat":null,"lon":null,"type":"Campus","associableId":6,"cityId":null},{"id":747,"name":"Langford Town","lat":12.9564819163574,"lon":77.6058554649353,"type":"TransitPoint","associableId":51,"cityId":1},{"id":750,"name":"MICO Industries","lat":12.949575839503,"lon":77.6031249761582,"type":"TransitPoint","associableId":54,"cityId":1},{"id":751,"name":"Magadi Road","lat":12.975579,"lon":77.555441,"type":"TransitPoint","associableId":55,"cityId":1},{"id":752,"name":"Singayyanapalya","lat":12.9964037529277,"lon":77.6926946640015,"type":"TransitPoint","associableId":56,"cityId":1},{"id":753,"name":"Mahalakshmi","lat":13.008197,"lon":77.548829,"type":"TransitPoint","associableId":57,"cityId":1},{"id":754,"name":"Majestic","lat":12.975692,"lon":77.572837,"type":"TransitPoint","associableId":58,"cityId":1},{"id":755,"name":"Manjunatha Nagara","lat":13.0510303800641,"lon":77.4918079376221,"type":"TransitPoint","associableId":59,"cityId":1},{"id":756,"name":"Muneshwara Nagar","lat":12.8898232365335,"lon":77.6393079757691,"type":"TransitPoint","associableId":60,"cityId":1},{"id":758,"name":"Nagasandra","lat":13.048022,"lon":77.500106,"type":"TransitPoint","associableId":62,"cityId":1},{"id":759,"name":"Nagawara","lat":13.0409129245547,"lon":77.6247811317444,"type":"TransitPoint","associableId":63,"cityId":1},{"id":760,"name":"National College","lat":12.9504750518722,"lon":77.5736850500107,"type":"TransitPoint","associableId":64,"cityId":1},{"id":761,"name":"Nayandahalli","lat":12.9416500831805,"lon":77.5252497196198,"type":"TransitPoint","associableId":65,"cityId":1},{"id":762,"name":"Oxford College","lat":12.9015364581668,"lon":77.632098197937,"type":"TransitPoint","associableId":66,"cityId":1},{"id":660,"name":"Kalyani Tech Park","lat":null,"lon":null,"type":"Campus","associableId":4,"cityId":null},{"id":661,"name":"Viatris","lat":12.943068738877843,"lon":77.69645616425494,"type":"Company","associableId":724,"cityId":18326},{"id":1377,"name":"Ghee Kanta","lat":23.0312465,"lon":72.5921328,"type":"TransitPoint","associableId":679,"cityId":42},{"id":664,"name":"Trimurti Rubber Industries","lat":22.62199736314875,"lon":88.32656800751693,"type":"Company","associableId":725,"cityId":18761},{"id":1378,"name":"Gujarat University","lat":23.0449352,"lon":72.5431859,"type":"TransitPoint","associableId":680,"cityId":42},{"id":665,"name":"Solapur City Development Corporation Limited","lat":17.65428267323341,"lon":75.90700011290359,"type":"Company","associableId":726,"cityId":18459},{"id":679,"name":"Owens Corning- Dapada","lat":20.194759379172528,"lon":73.02540651277583,"type":"Company","associableId":740,"cityId":18212},{"id":666,"name":"Panasonic Life Solutions India","lat":12.986203698358201,"lon":77.73675197698928,"type":"Company","associableId":727,"cityId":18326},{"id":281,"name":"Adobe India - PTC","lat":12.9240529,"lon":77.6954535,"type":"Company","associableId":357,"cityId":18326},{"id":667,"name":"SBI Cards (SBICPSL)","lat":12.96939958222903,"lon":77.61288303314059,"type":"Company","associableId":728,"cityId":18326},{"id":686,"name":"Sublime Camps Private Limited","lat":13.333433599065575,"lon":77.11048518502722,"type":"Company","associableId":747,"cityId":18352},{"id":674,"name":"Magene","lat":31.205754165294366,"lon":121.43573314510847,"type":"Company","associableId":735,"cityId":5597},{"id":668,"name":"Quiver Digital Solutions India","lat":12.9631629,"lon":77.5997111,"type":"Company","associableId":729,"cityId":18326},{"id":669,"name":"Dr Lal Pathlabs ","lat":12.937426233222501,"lon":77.69270597226141,"type":"Company","associableId":730,"cityId":18326},{"id":676,"name":"Avataar - GTP Old office","lat":12.92480021790411,"lon":77.68309085998091,"type":"Company","associableId":737,"cityId":18326},{"id":678,"name":"Owens Corning - International Packaging","lat":20.231919642769217,"lon":73.03883344757186,"type":"Company","associableId":739,"cityId":18212},{"id":673,"name":"Reva University ","lat":13.116626767240604,"lon":77.6352906228931,"type":"Company","associableId":734,"cityId":18326},{"id":681,"name":"JAI CORP LTD","lat":20.266923174054043,"lon":72.95921106220268,"type":"Company","associableId":742,"cityId":18212},{"id":675,"name":"NeoMotion Assistive Solutions","lat":13.1499473,"lon":80.2052493,"type":"Company","associableId":736,"cityId":18586},{"id":677,"name":"Aero Fibre Pvt Ltd","lat":20.292469420353992,"lon":73.0159521116002,"type":"Company","associableId":738,"cityId":18212},{"id":682,"name":"LNL","lat":45.35276349482537,"lon":11.950056552886965,"type":"Company","associableId":743,"cityId":21466},{"id":670,"name":"Sanathan textiles Ltd.","lat":20.155918287144623,"lon":73.00332444047547,"type":"Company","associableId":731,"cityId":18212},{"id":680,"name":"ADVANCE VENTILATION PVT LTD ","lat":28.6909226,"lon":77.1504262,"type":"Company","associableId":741,"cityId":18215},{"id":684,"name":"Tumakuru Smart City Limited","lat":13.333781915566837,"lon":77.10881763421766,"type":"Company","associableId":745,"cityId":18352},{"id":685,"name":"Sri Siddhartha Institute of Technology","lat":13.32052299820429,"lon":77.0920529012466,"type":"Company","associableId":746,"cityId":18352},{"id":672,"name":"EMMBI INDUSTRIES LIMITED","lat":20.21934838934925,"lon":73.03242240136859,"type":"Company","associableId":733,"cityId":18212},{"id":687,"name":"Pallavaa Group ","lat":11.368845723629375,"lon":77.74842645092578,"type":"Company","associableId":748,"cityId":18591},{"id":692,"name":"*astTECS Communications Pvt Ltd","lat":12.955575053830001,"lon":77.63722838415174,"type":"Company","associableId":753,"cityId":18326},{"id":1379,"name":"Gurukul Road","lat":23.0461692,"lon":72.530923,"type":"TransitPoint","associableId":681,"cityId":42},{"id":691,"name":"DD top riders","lat":13.374394965377876,"lon":77.21298621105234,"type":"Company","associableId":752,"cityId":18352},{"id":689,"name":"Pranavasya Private Limited","lat":13.329038146725855,"lon":77.11962424066088,"type":"Company","associableId":750,"cityId":18352},{"id":1380,"name":"Jivraj","lat":23.0057856,"lon":72.5333774000001,"type":"TransitPoint","associableId":682,"cityId":42},{"id":1381,"name":"Kalupur Rly. Station","lat":23.0268966,"lon":72.6030636,"type":"TransitPoint","associableId":683,"cityId":42},{"id":1382,"name":"Kankaria East","lat":23.0181282,"lon":72.6070333,"type":"TransitPoint","associableId":684,"cityId":42},{"id":1383,"name":"Motera Stadium","lat":23.093717,"lon":72.5947165,"type":"TransitPoint","associableId":685,"cityId":42},{"id":1384,"name":"Nirant Cross Road","lat":22.9997651,"lon":72.6588964,"type":"TransitPoint","associableId":686,"cityId":42},{"id":1385,"name":"Old High Court","lat":23.0375848,"lon":72.5671327,"type":"TransitPoint","associableId":687,"cityId":42},{"id":1386,"name":"Paldi","lat":23.0179776,"lon":72.5609046,"type":"TransitPoint","associableId":688,"cityId":42},{"id":683,"name":"Microfiber Corp Pvt Ltd ","lat":20.250013,"lon":73.002148,"type":"Company","associableId":744,"cityId":18212},{"id":696,"name":"ITPL","lat":null,"lon":null,"type":"Campus","associableId":10,"cityId":null},{"id":697,"name":"Arabic College","lat":13.0274763458154,"lon":77.6200979948044,"type":"TransitPoint","associableId":1,"cityId":1},{"id":698,"name":"Attiguppe","lat":12.961957,"lon":77.533582,"type":"TransitPoint","associableId":2,"cityId":1},{"id":699,"name":"BIEC","lat":13.0571340992361,"lon":77.4735689163208,"type":"TransitPoint","associableId":3,"cityId":1},{"id":724,"name":"Hosa Road","lat":12.870756704960405,"lon":77.65244409441948,"type":"TransitPoint","associableId":28,"cityId":1},{"id":701,"name":"Baiyappanahalli","lat":12.990748,"lon":77.652456,"type":"TransitPoint","associableId":5,"cityId":1},{"id":702,"name":"Banashankari","lat":12.915649,"lon":77.573631,"type":"TransitPoint","associableId":6,"cityId":1},{"id":703,"name":"Basapura Road","lat":12.8704952229694,"lon":77.6525902748108,"type":"TransitPoint","associableId":7,"cityId":1},{"id":705,"name":"Cantonment","lat":12.9916366794463,"lon":77.6062309741974,"type":"TransitPoint","associableId":9,"cityId":1},{"id":707,"name":"Challaghatta","lat":12.8978656771607,"lon":77.4626576900482,"type":"TransitPoint","associableId":11,"cityId":1},{"id":700,"name":"BTM Layout","lat":12.91657459384667,"lon":77.60813668370248,"type":"TransitPoint","associableId":4,"cityId":1},{"id":709,"name":"Chikkabegur","lat":12.8799711561723,"lon":77.6453590393067,"type":"TransitPoint","associableId":13,"cityId":1},{"id":710,"name":"City Railway Station","lat":12.975793,"lon":77.565665,"type":"TransitPoint","associableId":14,"cityId":1},{"id":706,"name":"Central Silk Board","lat":12.916548450445992,"lon":77.62057945132256,"type":"TransitPoint","associableId":10,"cityId":1},{"id":712,"name":"Dairy Circle","lat":12.9407926643575,"lon":77.6024436950684,"type":"TransitPoint","associableId":16,"cityId":1},{"id":713,"name":"Dasarahalli","lat":13.043567,"lon":77.512464,"type":"TransitPoint","associableId":17,"cityId":1},{"id":714,"name":"Deepanjali Nagar","lat":12.952187,"lon":77.536939,"type":"TransitPoint","associableId":18,"cityId":1},{"id":730,"name":"Indiranagar","lat":12.978277148091232,"lon":77.63852275907995,"type":"TransitPoint","associableId":34,"cityId":1},{"id":716,"name":"Doddanakundi Industrial Area","lat":12.9883749448632,"lon":77.7106976509094,"type":"TransitPoint","associableId":20,"cityId":1},{"id":718,"name":"Infosys Foundation Konappana Agrahara","lat":12.846338341267296,"lon":77.671175301075,"type":"TransitPoint","associableId":22,"cityId":1},{"id":727,"name":"Huskur Road","lat":12.83917555440756,"lon":77.677388638258,"type":"TransitPoint","associableId":31,"cityId":1},{"id":719,"name":"Gottigere","lat":12.8673417286873,"lon":77.5923103094101,"type":"TransitPoint","associableId":23,"cityId":1},{"id":720,"name":"Gurudacharpalya","lat":12.9936020629349,"lon":77.7023935317993,"type":"TransitPoint","associableId":24,"cityId":1},{"id":721,"name":"HSR Layout","lat":12.9108386662046,"lon":77.6265674829483,"type":"TransitPoint","associableId":25,"cityId":1},{"id":722,"name":"Halasuru","lat":12.976416,"lon":77.626674,"type":"TransitPoint","associableId":26,"cityId":1},{"id":704,"name":"Delta Electronics Bommasandra","lat":12.81934672471067,"lon":77.68833741545679,"type":"TransitPoint","associableId":8,"cityId":1},{"id":717,"name":"Electronic City","lat":12.856594447941237,"lon":77.6635390520096,"type":"TransitPoint","associableId":21,"cityId":1},{"id":725,"name":"Hosahalli","lat":12.974167,"lon":77.545541,"type":"TransitPoint","associableId":29,"cityId":1},{"id":726,"name":"Hulimavu","lat":12.882852563717,"lon":77.5962424278259,"type":"TransitPoint","associableId":30,"cityId":1},{"id":723,"name":"Biocon Hebbagodi","lat":12.828978887685555,"lon":77.68133014440536,"type":"TransitPoint","associableId":27,"cityId":1},{"id":728,"name":"IIM-Bangalore","lat":12.8977192631262,"lon":77.6002550125122,"type":"TransitPoint","associableId":32,"cityId":1},{"id":729,"name":"ITPL","lat":12.9875385957631,"lon":77.7385067939758,"type":"TransitPoint","associableId":33,"cityId":1},{"id":711,"name":"Cubbon Park","lat":12.980939179894557,"lon":77.59746685624124,"type":"TransitPoint","associableId":15,"cityId":1},{"id":731,"name":"JP Nagar 4th Phase","lat":12.9067601690273,"lon":77.6010489463806,"type":"TransitPoint","associableId":35,"cityId":1},{"id":732,"name":"Jalahalli","lat":13.039486,"lon":77.519703,"type":"TransitPoint","associableId":36,"cityId":1},{"id":733,"name":"Jayadeva Hospital","lat":12.9167000821318,"lon":77.5999867916107,"type":"TransitPoint","associableId":37,"cityId":1},{"id":1387,"name":"Rabari Colony","lat":23.0047326,"lon":72.6379122,"type":"TransitPoint","associableId":689,"cityId":42},{"id":763,"name":"Pattanagere","lat":12.9242972346179,"lon":77.4983257055283,"type":"TransitPoint","associableId":67,"cityId":1},{"id":764,"name":"Peenya","lat":13.032921,"lon":77.533297,"type":"TransitPoint","associableId":68,"cityId":1},{"id":765,"name":"Peenya Industry","lat":13.036341,"lon":77.525465,"type":"TransitPoint","associableId":69,"cityId":1},{"id":766,"name":"Pottery Town","lat":13.0007630360464,"lon":77.6097500324249,"type":"TransitPoint","associableId":70,"cityId":1},{"id":768,"name":"Rajajinagar","lat":13.000327,"lon":77.549709,"type":"TransitPoint","associableId":72,"cityId":1},{"id":769,"name":"Rajarajeshwari Nagar","lat":12.9364427868642,"lon":77.5194883346558,"type":"TransitPoint","associableId":73,"cityId":1},{"id":770,"name":"Rashtreeya Vidyalaya Road","lat":12.921458,"lon":77.580375,"type":"TransitPoint","associableId":74,"cityId":1},{"id":771,"name":"Sampige Road","lat":12.990489,"lon":77.570745,"type":"TransitPoint","associableId":75,"cityId":1},{"id":772,"name":"Sandal Soap Factory","lat":13.014707,"lon":77.553962,"type":"TransitPoint","associableId":76,"cityId":1},{"id":773,"name":"Shivaji Nagar","lat":12.9836704445518,"lon":77.6021647453308,"type":"TransitPoint","associableId":77,"cityId":1},{"id":774,"name":"Silk Institute","lat":12.8616674310031,"lon":77.5298523902893,"type":"TransitPoint","associableId":78,"cityId":1},{"id":776,"name":"South End Circle","lat":12.9382726724585,"lon":77.5800204277039,"type":"TransitPoint","associableId":80,"cityId":1},{"id":777,"name":"Sri Satya Sai Hospital","lat":12.9818722564593,"lon":77.7277779579163,"type":"TransitPoint","associableId":81,"cityId":1},{"id":778,"name":"Srirampura","lat":12.996498,"lon":77.563283,"type":"TransitPoint","associableId":82,"cityId":1},{"id":779,"name":"Swagath Road Cross","lat":12.9274081835581,"lon":77.6004534959793,"type":"TransitPoint","associableId":83,"cityId":1},{"id":780,"name":"Swami Vivekananda Road","lat":12.985947,"lon":77.644932,"type":"TransitPoint","associableId":84,"cityId":1},{"id":781,"name":"Tannery Road","lat":13.0088332573424,"lon":77.6135694980621,"type":"TransitPoint","associableId":85,"cityId":1},{"id":767,"name":"Ragigudda","lat":12.91709746128561,"lon":77.58832991123201,"type":"TransitPoint","associableId":71,"cityId":1},{"id":783,"name":"Trinity","lat":12.97295,"lon":77.617007,"type":"TransitPoint","associableId":87,"cityId":1},{"id":787,"name":"Vidhana Soudha","lat":12.979715981781277,"lon":77.59263888001443,"type":"TransitPoint","associableId":91,"cityId":1},{"id":785,"name":"Vellara Road","lat":12.9652802213243,"lon":77.6070249080658,"type":"TransitPoint","associableId":89,"cityId":1},{"id":786,"name":"Venkateshpura","lat":13.0173579273895,"lon":77.618225812912,"type":"TransitPoint","associableId":90,"cityId":1},{"id":775,"name":"Sir M. Visveshwarya","lat":12.97428731410948,"lon":77.58394852280618,"type":"TransitPoint","associableId":79,"cityId":1},{"id":788,"name":"Vijayanagar","lat":12.970801,"lon":77.537285,"type":"TransitPoint","associableId":92,"cityId":1},{"id":789,"name":"Visvesvaraya Industrial Area","lat":12.9800217818739,"lon":77.7090561389923,"type":"TransitPoint","associableId":93,"cityId":1},{"id":790,"name":"Vydehi Hospital","lat":12.9767285303191,"lon":77.7238512039185,"type":"TransitPoint","associableId":94,"cityId":1},{"id":791,"name":"Whitefield","lat":12.9938059183105,"lon":77.7575826644898,"type":"TransitPoint","associableId":95,"cityId":1},{"id":792,"name":"Yelachenahalli","lat":12.895982,"lon":77.570136,"type":"TransitPoint","associableId":96,"cityId":1},{"id":793,"name":"Yeshwantpur","lat":13.023181,"lon":77.549942,"type":"TransitPoint","associableId":97,"cityId":1},{"id":794,"name":"Yeshwantpur Industry","lat":13.0283491445687,"lon":77.5407636165619,"type":"TransitPoint","associableId":98,"cityId":1},{"id":795,"name":"Ameerpet","lat":17.43579004,"lon":78.44442129,"type":"TransitPoint","associableId":99,"cityId":19},{"id":796,"name":"Assembly","lat":17.400814,"lon":78.469672,"type":"TransitPoint","associableId":100,"cityId":19},{"id":797,"name":"Balanagar","lat":17.476994,"lon":78.42192,"type":"TransitPoint","associableId":101,"cityId":19},{"id":798,"name":"Begumpet","lat":17.43750966,"lon":78.45698476,"type":"TransitPoint","associableId":102,"cityId":19},{"id":799,"name":"Bharatnagar","lat":17.4639517,"lon":78.4300149,"type":"TransitPoint","associableId":103,"cityId":19},{"id":800,"name":"Chaitanyapuri","lat":17.368152,"lon":78.538102,"type":"TransitPoint","associableId":104,"cityId":19},{"id":801,"name":"Charminar","lat":17.361947,"lon":78.479974,"type":"TransitPoint","associableId":105,"cityId":19},{"id":802,"name":"Chikkadpally","lat":17.400322,"lon":78.494844,"type":"TransitPoint","associableId":106,"cityId":19},